"X1","Report ID","Report Type","Arrest Date","Time","Area ID","Area Name","Reporting District","Age","Sex Code","Descent Code","Charge Group Code","Charge Group Description","Arrest Type Code","Charge","Charge Description","Disposition Description","Address","Cross Street","LAT","LON","Location","Booking Date","Booking Time","Booking Location","Booking Location Code","week","date","month"
2,5938160,"BOOKING","05/23/2020 12:00:00 AM","1120","06","Hollywood","0639",49,"M","B","08","Other Assaults","F","422(A)PC","TERRORIZE CAUSING FEAR","FELONY COMPLAINT FILED","5400    HOLLYWOOD                    BL",NA,34.1036,-118.3049,"POINT (-118.3049 34.1036)","05/23/2020 12:00:00 AM","1338","HOLLYWOOD",4206,21,2020-05-23,5
3,5947277,"BOOKING","06/02/2020 12:00:00 AM","1915","12","77th Street","1249",27,"M","B","04","Aggravated Assault","F","245(A)(1)PC","ADW, NOT FIREARM, W/GBI","FELONY COMPLAINT FILED","6500    DENVER                       AV",NA,33.9806,-118.2838,"POINT (-118.2838 33.9806)","06/02/2020 12:00:00 AM","2108","77TH ST",4212,23,2020-06-02,6
4,5939364,"BOOKING","05/25/2020 12:00:00 AM","1400","06","Hollywood","0615",58,"F","W","04","Aggravated Assault","F","245(A)(1)PC","ADW, NOT FIREARM, W/GBI","OTHER (REQUIRES ADDITION ACTION)","3000    DURAND                       DR",NA,34.1227,-118.3239,"POINT (-118.3239 34.1227)","05/25/2020 12:00:00 AM","1443","HOLLYWOOD",4206,22,2020-05-25,5
5,5947850,"BOOKING","06/03/2020 12:00:00 AM","1330","07","Wilshire","0702",32,"M","W","04","Aggravated Assault","F","245(A)(1)PC","ADW, NOT FIREARM, W/GBI","DISTRICT ATTORNEY REJECT","600 N  CURSON                       AV",NA,34.0818,-118.3553,"POINT (-118.3553 34.0818)","06/03/2020 12:00:00 AM","1657","METRO - JAIL DIVISION",4273,23,2020-06-03,6
7,5948401,"BOOKING","06/03/2020 12:00:00 AM","2100","06","Hollywood","0636",30,"M","B","23","Moving Traffic Violations","F","20001(A)VC","HIT AND RUN CAUSING INJURY/DEATH","FELONY COMPLAINT FILED","CAHUENGA                     BL","SANTA MONICA                 BL",34.1034,-118.3325,"POINT (-118.3325 34.1034)","06/04/2020 12:00:00 AM","0212","HOLLYWOOD",4206,23,2020-06-03,6
8,5940764,"BOOKING","05/27/2020 12:00:00 AM","1230","12","77th Street","1269",28,"F","H","07","Vehicle Theft","F","10851(A)VC","TAKE VEHICLE W/O OWNER'S CONSENT","FELONY COMPLAINT FILED","84TH                         ST","WADSWORTH",33.9629,-118.2586,"POINT (-118.2586 33.9629)","05/27/2020 12:00:00 AM","1530","77TH ST",4212,22,2020-05-27,5
9,5945899,"BOOKING","06/01/2020 12:00:00 AM","0300","06","Hollywood","0669",28,"M","H","05","Burglary","F","463(A)PC","2ND DEGREE BURGLARY DURING EARTHQUAKE/ETC","FELONY COMPLAINT FILED","SANTA MONICA","101 FWY",34.0929,-118.3048,"POINT (-118.3048 34.0929)","06/01/2020 12:00:00 AM","0632","HOLLYWOOD",4206,23,2020-06-01,6
10,5945250,"BOOKING","05/31/2020 12:00:00 AM","0020","07","Wilshire","0702",20,"M","H","05","Burglary","F","463(A)PC","2ND DEGREE BURGLARY DURING EARTHQUAKE/ETC","849(B)(1) PC/TECHNICAL ARREST","MELROSE","FULLER",34.0836,-118.3498,"POINT (-118.3498 34.0836)","05/31/2020 12:00:00 AM","0735","VALLEY - JAIL DIV",4279,22,2020-05-31,5
11,5938186,"BOOKING","05/23/2020 12:00:00 AM","1230","14","Pacific","1494",37,"M","H","16","Narcotic Drug Laws","F","11360(A)HS","TRANSPORT/SELL/FURNISH/ETC MARIJUANA","849(B)(1) PC/TECHNICAL ARREST","500    WORLDWAY",NA,33.942,-118.4095,"POINT (-118.4095 33.942)","05/23/2020 12:00:00 AM","1508","PACIFIC",4214,21,2020-05-23,5
14,5943415,"BOOKING","05/29/2020 12:00:00 AM","1230","10","West Valley","1061",39,"M","W","16","Narcotic Drug Laws","F","11358HS","UNLAWFULLY PLANT/CULTIVATE/ETC MARIJUANA","849(B)(1) PC/TECHNICAL ARREST","5300    VANALDEN                     AV",NA,34.1687,-118.5579,"POINT (-118.5579 34.1687)","05/29/2020 12:00:00 AM","1327","VALLEY - JAIL DIV",4279,22,2020-05-29,5
15,5939116,"BOOKING","05/25/2020 12:00:00 AM","0005","03","Southwest","0333",21,"M","B","07","Vehicle Theft","F","10851(A)VC","TAKE VEHICLE W/O OWNER'S CONSENT","DISTRICT ATTORNEY REJECT","JEFFERSON","CRENSHAW                     BL",34.0256,-118.3351,"POINT (-118.3351 34.0256)","05/25/2020 12:00:00 AM","0139","77TH ST",4212,22,2020-05-25,5
16,5942493,"BOOKING","05/28/2020 12:00:00 AM","2130","06","Hollywood","0643",28,"M","W","24","Miscellaneous Other Violations","F","594(A)(2)PC","DAMAGE PROPERTY","849(B)(1) PC/TECHNICAL ARREST","1500 N  DETROIT",NA,34.098,-118.3456,"POINT (-118.3456 34.098)","05/28/2020 12:00:00 AM","2252","HOLLYWOOD",4206,22,2020-05-28,5
18,5940740,"BOOKING","05/27/2020 12:00:00 AM","1200","09","Van Nuys","0963",30,"M","H","16","Narcotic Drug Laws","F","11379(A)HS","TRANSPORT/SELL CONTROLLED SUBSTANCE","849(B)(1) PC/TECHNICAL ARREST","KESTER","MAGNOLIA",34.1649,-118.4574,"POINT (-118.4574 34.1649)","05/27/2020 12:00:00 AM","1448","VALLEY - JAIL DIV",4279,22,2020-05-27,5
22,5938113,"BOOKING","05/23/2020 12:00:00 AM","0740","14","Pacific","1494",24,"M","B","16","Narcotic Drug Laws","F","11360(A)HS","TRANSPORT/SELL/FURNISH/ETC MARIJUANA","849(B)(1) PC/TECHNICAL ARREST","400    WORLDWAY",NA,33.942,-118.4095,"POINT (-118.4095 33.942)","05/23/2020 12:00:00 AM","1106","PACIFIC",4214,21,2020-05-23,5
23,5946893,"BOOKING","06/01/2020 12:00:00 AM","2345","12","77th Street","1273",17,"M","B","24","Miscellaneous Other Violations","F","594(A)(1)PC","DEFACE PROPERTY",NA,"87TH","WESTERN",33.9591,-118.309,"POINT (-118.309 33.9591)","06/02/2020 12:00:00 AM","0426","77TH ST",4212,23,2020-06-01,6
25,5940485,"BOOKING","05/27/2020 12:00:00 AM","0145","12","77th Street","1255",11,"M","H","26","Non-Criminal Detention","D","300(D)WI","FAIL PROTECT CHILD FROM SEXUAL ABUSE","DEPARTMENT OF SOCIAL SERVICES","1300 W  FLORENCE                     AV",NA,33.9746,-118.2984,"POINT (-118.2984 33.9746)","05/27/2020 12:00:00 AM","0505","77TH ST",4212,22,2020-05-27,5
27,5944377,"BOOKING","05/30/2020 12:00:00 AM","0004","14","Pacific","1494",27,"M","H","16","Narcotic Drug Laws","F","11360(A)HS","TRANSPORT/SELL/FURNISH/ETC MARIJUANA","849(B)(1) PC/TECHNICAL ARREST","400    WORLD                        WY",NA,33.9433,-118.4072,"POINT (-118.4072 33.9433)","05/30/2020 12:00:00 AM","0216","PACIFIC",4214,22,2020-05-30,5
29,202109985,"RFC","05/31/2020 12:00:00 AM","1600","21","Topanga","2156",17,"F","B",NA,NA,"M","463PC",NA,NA,"21600    VICTORY                      BL",NA,34.188,-118.6002,"POINT (-118.6002 34.188)",NA,NA,NA,NA,22,2020-05-31,5
30,5768779,"BOOKING","05/31/2020 12:00:00 AM","0140","01","Central","0171",20,"M","B","12","Weapon (carry/poss)","F","25400(A)2PC","CARRYING CONCEALED WEAPON UPON PERSON","FELONY COMPLAINT FILED","GEORGIA","OLYMPIC",34.0459,-118.2669,"POINT (-118.2669 34.0459)","05/31/2020 12:00:00 AM","0438","METRO - JAIL DIVISION",4273,22,2020-05-31,5
32,5938088,"BOOKING","05/23/2020 12:00:00 AM","0735","14","Pacific","1494",29,"F","B","16","Narcotic Drug Laws","F","11352(A)HS","TRANSPORT/SELL/ETC CONTROLLED SUBSTANCE","849(B)(1) PC/TECHNICAL ARREST","100    WORLDWAY",NA,33.942,-118.4095,"POINT (-118.4095 33.942)","05/23/2020 12:00:00 AM","1008","PACIFIC",4214,21,2020-05-23,5
33,5941635,"BOOKING","05/28/2020 12:00:00 AM","1240","12","77th Street","1256",23,"M","H","16","Narcotic Drug Laws","F","11360(A)HS","TRANSPORT/SELL/FURNISH/ETC MARIJUANA","849(B)(1) PC/TECHNICAL ARREST","600 W  FLORENCE                     AV",NA,33.9747,-118.2838,"POINT (-118.2838 33.9747)","05/28/2020 12:00:00 AM","1439","77TH ST",4212,22,2020-05-28,5
35,5940565,"BOOKING","05/27/2020 12:00:00 AM","0700","12","77th Street","1273",20,"F","H","11","Receive Stolen Property","F","496(A)PC","RECEIVING KNOWN STOLEN PROPERTY >$950","849(B)(1) PC/TECHNICAL ARREST","1800 W  88TH                         ST",NA,33.9582,-118.309,"POINT (-118.309 33.9582)","05/27/2020 12:00:00 AM","0911","77TH ST",4212,22,2020-05-27,5
36,5938704,"BOOKING","05/24/2020 12:00:00 AM","0745","14","Pacific","1494",25,"M","B","16","Narcotic Drug Laws","F","11360(A)HS","TRANSPORT/SELL/FURNISH/ETC MARIJUANA","849(B)(1) PC/TECHNICAL ARREST","400    WORLD WAY",NA,33.9433,-118.4072,"POINT (-118.4072 33.9433)","05/24/2020 12:00:00 AM","0940","PACIFIC",4214,21,2020-05-24,5
38,5947144,"BOOKING","06/02/2020 12:00:00 AM","1445","12","77th Street","1245",23,"M","B","04","Aggravated Assault","F","245(A)(2)PC","ADW W/FIREARM","MISDEMEANOR COMPLAINT FILED","7100 S  VERMONT                      AV",NA,33.9808,-118.2917,"POINT (-118.2917 33.9808)","06/02/2020 12:00:00 AM","1745","77TH ST",4212,23,2020-06-02,6
40,5937989,"BOOKING","05/23/2020 12:00:00 AM","0345","06","Hollywood","0663",26,"F","W","04","Aggravated Assault","F","273.5(A)PC","CORPORAL INJURY ON SPOUSE/COHABITANT/ETC","CITY ATTORNEY REJECT","HIGHLAND                     AV","FOUNTAIN                     AV",34.0944,-118.3386,"POINT (-118.3386 34.0944)","05/23/2020 12:00:00 AM","0446","HOLLYWOOD",4206,21,2020-05-23,5
41,5948013,"BOOKING","06/03/2020 12:00:00 AM","2030","19","Mission","1962",26,"M","H","24","Miscellaneous Other Violations","F","594(A)(1)PC","DEFACE PROPERTY","FELONY COMPLAINT FILED","XEMONA                       AV","NORDOFF                      ST",34.2434,-118.4611,"POINT (-118.4611 34.2434)","06/03/2020 12:00:00 AM","2254","VALLEY - JAIL DIV",4279,23,2020-06-03,6
44,5946415,"BOOKING","06/01/2020 12:00:00 AM","2005","19","Mission","1983",34,"M","H","08","Other Assaults","F","422(A)PC","TERRORIZE CAUSING FEAR","FELONY COMPLAINT FILED","8300    COLUMBUS                     AV",NA,34.2214,-118.4655,"POINT (-118.4655 34.2214)","06/01/2020 12:00:00 AM","2314","VALLEY - JAIL DIV",4279,23,2020-06-01,6
45,5940686,"BOOKING","05/27/2020 12:00:00 AM","1000","14","Pacific","1494",57,"M","B","16","Narcotic Drug Laws","F","11360(A)HS","TRANSPORT/SELL/FURNISH/ETC MARIJUANA","849(B)(1) PC/TECHNICAL ARREST","400    WORLDWAY",NA,33.942,-118.4095,"POINT (-118.4095 33.942)","05/27/2020 12:00:00 AM","1325","PACIFIC",4214,22,2020-05-27,5
46,5945908,"BOOKING","06/01/2020 12:00:00 AM","0345","06","Hollywood","0668",30,"M","H","05","Burglary","F","463(A)PC","2ND DEGREE BURGLARY DURING EARTHQUAKE/ETC","FELONY COMPLAINT FILED","WILTON                       PL","VIRGINIA",34.0918,-118.3136,"POINT (-118.3136 34.0918)","06/01/2020 12:00:00 AM","0710","HOLLYWOOD",4206,23,2020-06-01,6
47,5939294,"BOOKING","05/25/2020 12:00:00 AM","1030","06","Hollywood","0646",21,"F","B","04","Aggravated Assault","F","245(A)(1)PC","ADW, NOT FIREARM, W/GBI","CITY ATTORNEY REJECT","6400    SUNSET                       BL",NA,34.0987,-118.3337,"POINT (-118.3337 34.0987)","05/25/2020 12:00:00 AM","1135","HOLLYWOOD",4206,22,2020-05-25,5
48,5945598,"BOOKING","05/31/2020 12:00:00 AM","1920","01","Central","0153",32,"M","H","24","Miscellaneous Other Violations","F","594(A)(1)PC","DEFACE PROPERTY","849(B)(1) PC/TECHNICAL ARREST","600 S  HILL                         ST",NA,34.0474,-118.2531,"POINT (-118.2531 34.0474)","05/31/2020 12:00:00 AM","2314","METRO - JAIL DIVISION",4273,22,2020-05-31,5
49,5945795,"BOOKING","06/01/2020 12:00:00 AM","0130","14","Pacific","1444",21,"M","B","05","Burglary","F","463(A)PC","2ND DEGREE BURGLARY DURING EARTHQUAKE/ETC","FELONY COMPLAINT FILED","WASHINGTON                   BL","LINCOLN                      BL",33.9908,-118.4472,"POINT (-118.4472 33.9908)","06/01/2020 12:00:00 AM","0304","PACIFIC",4214,23,2020-06-01,6
52,5938555,"BOOKING","05/23/2020 12:00:00 AM","2230","18","Southeast","1849",34,"M","B","12","Weapon (carry/poss)","F","29800(A)1PC","POSS F/ARM BY CONVICTED FELON/ADDICT/ETC","DISTRICT ATTORNEY REJECT","111TH                        ST","CROESUS",33.9343,-118.2335,"POINT (-118.2335 33.9343)","05/24/2020 12:00:00 AM","0142","77TH ST",4212,21,2020-05-23,5
54,5938966,"BOOKING","05/24/2020 12:00:00 AM","1645","07","Wilshire","0701",38,"M","H","03","Robbery","F","211PC","ROBBERY","849(B)(1) PC/TECHNICAL ARREST","3800    WILLOUGHBY                   AV",NA,34.0872,-118.3675,"POINT (-118.3675 34.0872)","05/24/2020 12:00:00 AM","2112","METRO - JAIL DIVISION",4273,21,2020-05-24,5
57,5940180,"BOOKING","05/26/2020 12:00:00 AM","1645","06","Hollywood","0669",29,"M","H","04","Aggravated Assault","F","245(A)(1)PC","ADW, NOT FIREARM, W/GBI","MISDEMEANOR COMPLAINT FILED","SANTA MONICA","FLEMMINGS                    LN",34.0929,-118.3048,"POINT (-118.3048 34.0929)","05/26/2020 12:00:00 AM","1850","HOLLYWOOD",4206,22,2020-05-26,5
59,5768796,"BOOKING","05/30/2020 12:00:00 AM","2100","07","Wilshire","0743",18,"M","B","05","Burglary","F","463(A)PC","2ND DEGREE BURGLARY DURING EARTHQUAKE/ETC","849(B)(1) PC/TECHNICAL ARREST","LA BREA","SAN VICENTE",34.0592,-118.3575,"POINT (-118.3575 34.0592)","05/31/2020 12:00:00 AM","0603","77TH ST",4212,22,2020-05-30,5
60,5947547,"BOOKING","06/02/2020 12:00:00 AM","2300","15","N Hollywood","1523",35,"M","W","08","Other Assaults","F","422(A)PC","TERRORIZE CAUSING FEAR","DISTRICT ATTORNEY REJECT","6300    COLDWATER CA                 AV",NA,34.1849,-118.4095,"POINT (-118.4095 34.1849)","06/03/2020 12:00:00 AM","0150","VALLEY - JAIL DIV",4279,23,2020-06-02,6
61,5938818,"BOOKING","05/24/2020 12:00:00 AM","1250","15","N Hollywood","1505",28,"M","H","04","Aggravated Assault","F","273.5(A)PC","CORPORAL INJURY ON SPOUSE/COHABITANT/ETC","OTHER (REQUIRES ADDITION ACTION)","7200    LEMP                         AV",NA,34.2012,-118.3845,"POINT (-118.3845 34.2012)","05/24/2020 12:00:00 AM","1531","VALLEY - JAIL DIV",4279,21,2020-05-24,5
62,5939815,"BOOKING","05/26/2020 12:00:00 AM","0200","03","Southwest","0394",54,"M","B","16","Narcotic Drug Laws","F","11351.5HS","POSS/PURCHASE COCAINE BASE FOR SALE","849(B)(1) PC/TECHNICAL ARREST","ARLINGTON                    ST","43RD                         RD",34.0055,-118.3182,"POINT (-118.3182 34.0055)","05/26/2020 12:00:00 AM","0543","77TH ST",4212,22,2020-05-26,5
64,5944778,"BOOKING","05/28/2020 12:00:00 AM","2100","10","West Valley","1011",29,"M","H","12","Weapon (carry/poss)","F","29800(A)1PC","POSS F/ARM BY CONVICTED FELON/ADDICT/ETC","DISTRICT ATTORNEY REJECT","ARIEL","WYANDOTTE                    ST",34.203,-118.5455,"POINT (-118.5455 34.203)","05/29/2020 12:00:00 AM","0001","VALLEY - JAIL DIV",4279,22,2020-05-28,5
65,5945100,"BOOKING","05/30/2020 12:00:00 AM","2120","20","Olympic","2034",44,"F","B","05","Burglary","F","463(A)PC","2ND DEGREE BURGLARY DURING EARTHQUAKE/ETC","849(B)(1) PC/TECHNICAL ARREST","3500    WILSHIRE                     BL",NA,34.0618,-118.3004,"POINT (-118.3004 34.0618)","05/31/2020 12:00:00 AM","0209","77TH ST",4212,22,2020-05-30,5
67,5938698,"BOOKING","05/24/2020 12:00:00 AM","0730","14","Pacific","1494",27,"M","B","16","Narcotic Drug Laws","F","11360(A)HS","TRANSPORT/SELL/FURNISH/ETC MARIJUANA","849(B)(1) PC/TECHNICAL ARREST","100    WORLD WAY",NA,33.9451,-118.4029,"POINT (-118.4029 33.9451)","05/24/2020 12:00:00 AM","0911","PACIFIC",4214,21,2020-05-24,5
69,5939749,"BOOKING","05/25/2020 12:00:00 AM","2310","11","Northeast","1102",44,"M","H","24","Miscellaneous Other Violations","F","451(D)PC","ARSON OF PROPERTY","849(B)(1) PC/TECHNICAL ARREST","LOS FELIZ","REVERE",34.126,-118.2638,"POINT (-118.2638 34.126)","05/26/2020 12:00:00 AM","0224","METRO - JAIL DIVISION",4273,22,2020-05-25,5
70,5948631,"BOOKING","06/04/2020 12:00:00 AM","1240","06","Hollywood","0644",30,"M","H","05","Burglary","F","463(A)PC","2ND DEGREE BURGLARY DURING EARTHQUAKE/ETC","CITY ATTORNEY REJECT","7500 N  SUNSET                       BL",NA,34.098,-118.3533,"POINT (-118.3533 34.098)","06/04/2020 12:00:00 AM","1514","HOLLYWOOD",4206,23,2020-06-04,6
71,5948689,"BOOKING","06/04/2020 12:00:00 AM","1300","19","Mission","1941",23,"M","H","03","Robbery","F","211PC","ROBBERY","FELONY COMPLAINT FILED","SEPULVEDA                    BL","CHATSWORTH",34.2646,-118.4673,"POINT (-118.4673 34.2646)","06/04/2020 12:00:00 AM","1740","VALLEY - JAIL DIV",4279,23,2020-06-04,6
72,5938138,"BOOKING","05/23/2020 12:00:00 AM","0850","03","Southwest","0329",25,"M","W","07","Vehicle Theft","F","10851(A)VC","TAKE VEHICLE W/O OWNER'S CONSENT","DISTRICT ATTORNEY REJECT","28TH","FLOWER",34.0266,-118.277,"POINT (-118.277 34.0266)","05/23/2020 12:00:00 AM","1228","77TH ST",4212,21,2020-05-23,5
73,5949458,"BOOKING","06/05/2020 12:00:00 AM","2020","13","Newton","1323",36,"M","H","07","Vehicle Theft","F","487(D)(1)PC","GRAND THEFT AUTO/HORSE/ETC","849(B)(1) PC/TECHNICAL ARREST","25TH                         ST","GRIFFITH",34.0216,-118.2569,"POINT (-118.2569 34.0216)","06/06/2020 12:00:00 AM","0014","77TH ST",4212,23,2020-06-05,6
74,5939556,"BOOKING","05/25/2020 12:00:00 AM","1900","07","Wilshire","0775",33,"M","H","04","Aggravated Assault","F","273.5(A)PC","CORPORAL INJURY ON SPOUSE/COHABITANT/ETC","OTHER (REQUIRES ADDITION ACTION)","4600 W  17TH                         ST",NA,34.0441,-118.3382,"POINT (-118.3382 34.0441)","05/25/2020 12:00:00 AM","2106","METRO - JAIL DIVISION",4273,22,2020-05-25,5
75,5945340,"BOOKING","05/31/2020 12:00:00 AM","0900","01","Central","0147",18,"M","B","03","Robbery","F","211PC","ROBBERY","FELONY COMPLAINT FILED","5TH","SAN PEDRO",34.0444,-118.2443,"POINT (-118.2443 34.0444)","05/31/2020 12:00:00 AM","1221","METRO - JAIL DIVISION",4273,22,2020-05-31,5
77,5940386,"BOOKING","05/26/2020 12:00:00 AM","1955","06","Hollywood","0639",20,"M","B","08","Other Assaults","F","422(A)PC","TERRORIZE CAUSING FEAR","CITY ATTORNEY REJECT","5100    HOLLYWOOD                    BL",NA,34.1036,-118.3049,"POINT (-118.3049 34.1036)","05/27/2020 12:00:00 AM","0103","METRO - JAIL DIVISION",4273,22,2020-05-26,5
81,5938131,"BOOKING","05/23/2020 12:00:00 AM","1050","14","Pacific","1494",43,"M","B","16","Narcotic Drug Laws","F","11360(A)HS","TRANSPORT/SELL/FURNISH/ETC MARIJUANA","849(B)(1) PC/TECHNICAL ARREST","400    WORLD WAY",NA,33.9433,-118.4072,"POINT (-118.4072 33.9433)","05/23/2020 12:00:00 AM","1210","PACIFIC",4214,21,2020-05-23,5
82,5939190,"BOOKING","05/25/2020 12:00:00 AM","0300","05","Harbor","0501",51,"M","H","07","Vehicle Theft","F","487(D)(1)PC","GRAND THEFT AUTO/HORSE/ETC","FELONY COMPLAINT FILED","1600    MOLINA                       LN",NA,33.8627,-118.3077,"POINT (-118.3077 33.8627)","05/25/2020 12:00:00 AM","0442","HARBOR",4205,22,2020-05-25,5
87,5941418,"BOOKING","05/28/2020 12:00:00 AM","0450","05","Harbor","0513",27,"F","H","03","Robbery","F","215(A)PC","CARJACKING","FELONY COMPLAINT FILED","1400 W  PACIFIC COAST                HY",NA,33.7907,-118.2827,"POINT (-118.2827 33.7907)","05/28/2020 12:00:00 AM","0734","HARBOR",4205,22,2020-05-28,5
90,5939436,"BOOKING","05/25/2020 12:00:00 AM","1410","12","77th Street","1218",32,"F","H","03","Robbery","F","211PC","ROBBERY","DISTRICT ATTORNEY REJECT","FLOWER                       ST","52ND                         ST",33.9923,-118.287,"POINT (-118.287 33.9923)","05/25/2020 12:00:00 AM","1725","77TH ST",4212,22,2020-05-25,5
96,5768802,"BOOKING","05/31/2020 12:00:00 AM","0400","02","Rampart","0285",26,"M","B","05","Burglary","F","459PC","BURGLARY","FELONY COMPLAINT FILED","1200 S  UNION                        AV",NA,34.0472,-118.2782,"POINT (-118.2782 34.0472)","05/31/2020 12:00:00 AM","0657","METRO - JAIL DIVISION",4273,22,2020-05-31,5
98,5938086,"BOOKING","05/23/2020 12:00:00 AM","0830","05","Harbor","0522",27,"M","H","07","Vehicle Theft","F","10851(A)VC","TAKE VEHICLE W/O OWNER'S CONSENT","849(B)(1) PC/TECHNICAL ARREST","F STREET","MCDONALD",33.7766,-118.2713,"POINT (-118.2713 33.7766)","05/23/2020 12:00:00 AM","1004","HARBOR",4205,21,2020-05-23,5
99,5945940,"BOOKING","06/01/2020 12:00:00 AM","0725","13","Newton","1333",52,"M","H","04","Aggravated Assault","F","273.5(A)PC","CORPORAL INJURY ON SPOUSE/COHABITANT/ETC","849(B)(1) PC/TECHNICAL ARREST","29TH                         ST","SAN PEDRO",34.0191,-118.2629,"POINT (-118.2629 34.0191)","06/01/2020 12:00:00 AM","0930","77TH ST",4212,23,2020-06-01,6
100,5943426,"BOOKING","05/29/2020 12:00:00 AM","1235","14","Pacific","1494",32,"M","H","16","Narcotic Drug Laws","F","11360(A)HS","TRANSPORT/SELL/FURNISH/ETC MARIJUANA","849(B)(1) PC/TECHNICAL ARREST","100    WORLD WAY",NA,33.9451,-118.4029,"POINT (-118.4029 33.9451)","05/29/2020 12:00:00 AM","1359","PACIFIC",4214,22,2020-05-29,5
101,5938037,"BOOKING","05/23/2020 12:00:00 AM","0530","12","77th Street","1259",14,"F","H",NA,NA,"D","300(D)WIC",NA,"DEPARTMENT OF SOCIAL SERVICES","600 E  79TH                         ST",NA,33.9711,-118.2629,"POINT (-118.2629 33.9711)","05/23/2020 12:00:00 AM","0659","77TH ST",4212,21,2020-05-23,5
102,5949042,"BOOKING","06/04/2020 12:00:00 AM","2340","05","Harbor","0515",29,"M","W","16","Narcotic Drug Laws","F","11378HS","POSSESSION CONTROLLED SUBSTANCE FOR SALE","FELONY COMPLAINT FILED","LOMITA","BAY VIEW",33.7988,-118.271,"POINT (-118.271 33.7988)","06/05/2020 12:00:00 AM","0414","HARBOR",4205,23,2020-06-04,6
103,5938773,"BOOKING","05/24/2020 12:00:00 AM","1245","14","Pacific","1494",39,"M","B","16","Narcotic Drug Laws","F","11360(A)HS","TRANSPORT/SELL/FURNISH/ETC MARIJUANA","849(B)(1) PC/TECHNICAL ARREST","400    WORLD WAY",NA,33.9433,-118.4072,"POINT (-118.4072 33.9433)","05/24/2020 12:00:00 AM","1326","PACIFIC",4214,21,2020-05-24,5
104,5939237,"BOOKING","05/25/2020 12:00:00 AM","0720","14","Pacific","1494",26,"M","B","16","Narcotic Drug Laws","F","11360(A)HS","TRANSPORT/SELL/FURNISH/ETC MARIJUANA","849(B)(1) PC/TECHNICAL ARREST","100    WORLD WAY                    WY",NA,33.942,-118.4095,"POINT (-118.4095 33.942)","05/25/2020 12:00:00 AM","0824","PACIFIC",4214,22,2020-05-25,5
105,5938967,"BOOKING","05/24/2020 12:00:00 AM","1645","07","Wilshire","0701",34,"M","H","03","Robbery","F","211PC","ROBBERY","849(B)(1) PC/TECHNICAL ARREST","3800    WILLOUGHBY                   AV",NA,34.0872,-118.3675,"POINT (-118.3675 34.0872)","05/24/2020 12:00:00 AM","2112","METRO - JAIL DIVISION",4273,21,2020-05-24,5
106,5943678,"BOOKING","05/29/2020 12:00:00 AM","1415","14","Pacific","1409",29,"F","H","16","Narcotic Drug Laws","F","11366HS","MAINTAIN PLACE TO SELL CONTROLLED SUBS","849(B)(1) PC/TECHNICAL ARREST","9600    VENICE",NA,34.0249,-118.3959,"POINT (-118.3959 34.0249)","05/29/2020 12:00:00 AM","1639","PACIFIC",4214,22,2020-05-29,5
107,5949074,"BOOKING","06/05/2020 12:00:00 AM","0250","13","Newton","1385",33,"M","B","05","Burglary","F","459PC","BURGLARY","FELONY COMPLAINT FILED","66TH                         AV","AVALON                       BL",33.9857,-118.2628,"POINT (-118.2628 33.9857)","06/05/2020 12:00:00 AM","0504","77TH ST",4212,23,2020-06-05,6
108,201009622,"RFC","06/02/2020 12:00:00 AM","1630","10","West Valley","1061",34,"M","W","16","Narcotic Drug Laws","M","11550(A)HS","UNDER INFLUENCE CNTL SUB","CITY ATTORNEY REJECT","19600 W  VENTURA                      BL",NA,34.1728,-118.56,"POINT (-118.56 34.1728)",NA,NA,NA,NA,23,2020-06-02,6
109,5938755,"BOOKING","05/24/2020 12:00:00 AM","0855","14","Pacific","1494",28,"M","B","16","Narcotic Drug Laws","F","11360(A)HS","TRANSPORT/SELL/FURNISH/ETC MARIJUANA","849(B)(1) PC/TECHNICAL ARREST","400    WORLD WAY",NA,33.9433,-118.4072,"POINT (-118.4072 33.9433)","05/24/2020 12:00:00 AM","1240","PACIFIC",4214,21,2020-05-24,5
110,5945905,"BOOKING","06/01/2020 12:00:00 AM","0300","06","Hollywood","0669",39,"M","H","05","Burglary","F","463(A)PC","2ND DEGREE BURGLARY DURING EARTHQUAKE/ETC","FELONY COMPLAINT FILED","SANTA MONICA","101 FWY",34.0929,-118.3048,"POINT (-118.3048 34.0929)","06/01/2020 12:00:00 AM","0656","HOLLYWOOD",4206,23,2020-06-01,6
111,5950251,"BOOKING","06/06/2020 12:00:00 AM","2300","10","West Valley","1099",40,"M","W","04","Aggravated Assault","F","245(A)(2)PC","ADW W/FIREARM","DISTRICT ATTORNEY REJECT","4100 N  SEPULVEDA                    BL",NA,34.1454,-118.4728,"POINT (-118.4728 34.1454)","06/07/2020 12:00:00 AM","0146","VALLEY - JAIL DIV",4279,23,2020-06-06,6
112,5938392,"BOOKING","05/23/2020 12:00:00 AM","1911","01","Central","0157",38,"M","B","16","Narcotic Drug Laws","M","11377(A)HS","POSSESSION CONTROLLED SUBSTANCE","CITY ATTORNEY REJECT","TOWNE","6TH",34.0412,-118.2436,"POINT (-118.2436 34.0412)","05/23/2020 12:00:00 AM","2126","METRO - JAIL DIVISION",4273,21,2020-05-23,5
114,5940580,"BOOKING","05/27/2020 12:00:00 AM","0730","14","Pacific","1494",29,"M","H","16","Narcotic Drug Laws","F","11360(A)HS","TRANSPORT/SELL/FURNISH/ETC MARIJUANA","849(B)(1) PC/TECHNICAL ARREST","400    WORLDWAY",NA,33.942,-118.4095,"POINT (-118.4095 33.942)","05/27/2020 12:00:00 AM","0950","PACIFIC",4214,22,2020-05-27,5
115,5949873,"BOOKING","06/06/2020 12:00:00 AM","0730","11","Northeast","1171",28,"M","H","05","Burglary","F","459PCRES","RESIDENTIAL BURGLARY","849(B)(1) PC/TECHNICAL ARREST","1100    WESTERLY                     TR",NA,34.0917,-118.2741,"POINT (-118.2741 34.0917)","06/06/2020 12:00:00 AM","1031","METRO - JAIL DIVISION",4273,23,2020-06-06,6
117,5938664,"BOOKING","05/24/2020 12:00:00 AM","0115","20","Olympic","2046",21,"M","H","02","Rape","F","220PC261","ASSAULT TO COMMIT RAPE","849(B)(1) PC/TECHNICAL ARREST","S  BERENDO                      ST","SAN MARINO                   ST",34.0545,-118.2941,"POINT (-118.2941 34.0545)","05/24/2020 12:00:00 AM","0746","METRO - JAIL DIVISION",4273,21,2020-05-24,5
118,5941540,"BOOKING","05/28/2020 12:00:00 AM","0900","07","Wilshire","0724",41,"M","B","06","Larceny","F","487(A)PC","GRAND THEFT MONEY/PROPERTY > $400","849(B)(1) PC/TECHNICAL ARREST","7600    BEVERLY",NA,34.0761,-118.3555,"POINT (-118.3555 34.0761)","05/28/2020 12:00:00 AM","1206","HOLLYWOOD",4206,22,2020-05-28,5
119,5943853,"BOOKING","05/29/2020 12:00:00 AM","2255","14","Pacific","1494",27,"M","W","16","Narcotic Drug Laws","F","11360(A)HS","TRANSPORT/SELL/FURNISH/ETC MARIJUANA","849(B)(1) PC/TECHNICAL ARREST","700    WORLD                        WY",NA,33.9432,-118.4013,"POINT (-118.4013 33.9432)","05/30/2020 12:00:00 AM","0014","PACIFIC",4214,22,2020-05-29,5
120,5949769,"BOOKING","06/06/2020 12:00:00 AM","0001","11","Northeast","1147",41,"M","H","06","Larceny","F","459PCAUTO","BURGLARY FROM VEHICLE","DISTRICT ATTORNEY REJECT","1900    CYPRESS                      AV",NA,34.1008,-118.2347,"POINT (-118.2347 34.1008)","06/06/2020 12:00:00 AM","0330","METRO - JAIL DIVISION",4273,23,2020-06-06,6
121,5948473,"BOOKING","06/04/2020 12:00:00 AM","0200","03","Southwest","0399",33,"M","B","04","Aggravated Assault","F","273.5(A)PC","CORPORAL INJURY ON SPOUSE/COHABITANT/ETC","MISDEMEANOR COMPLAINT FILED","4100 S  FIGUEROA                     ST",NA,34.0087,-118.2827,"POINT (-118.2827 34.0087)","06/04/2020 12:00:00 AM","0422","77TH ST",4212,23,2020-06-04,6
122,5948676,"BOOKING","06/04/2020 12:00:00 AM","1240","06","Hollywood","0644",35,"M","H","16","Narcotic Drug Laws","M","11377(A)HS","POSSESSION CONTROLLED SUBSTANCE","MISDEMEANOR COMPLAINT FILED","7500 W  SUNSET                       BL",NA,34.098,-118.3533,"POINT (-118.3533 34.098)","06/04/2020 12:00:00 AM","1656","HOLLYWOOD",4206,23,2020-06-04,6
124,5943668,"BOOKING","05/29/2020 12:00:00 AM","1415","14","Pacific","1409",30,"M","B","16","Narcotic Drug Laws","F","11366HS","MAINTAIN PLACE TO SELL CONTROLLED SUBS","849(B)(1) PC/TECHNICAL ARREST","9600    VENICE",NA,34.0249,-118.3959,"POINT (-118.3959 34.0249)","05/29/2020 12:00:00 AM","1614","PACIFIC",4214,22,2020-05-29,5
126,5942457,"BOOKING","05/28/2020 12:00:00 AM","1300","17","Devonshire","1764",36,"M","H","16","Narcotic Drug Laws","F","11370.1AHS","POSS C/SUB WHILE ARMED W/LOADED FIREARM","849(B)(1) PC/TECHNICAL ARREST","9300    SHIRLEY                      AV",NA,34.2391,-118.558,"POINT (-118.558 34.2391)","05/28/2020 12:00:00 AM","2139","VALLEY - JAIL DIV",4279,22,2020-05-28,5
128,5949177,"BOOKING","06/05/2020 12:00:00 AM","1120","06","Hollywood","0648",32,"M","W","08","Other Assaults","F","422(A)PC","TERRORIZE CAUSING FEAR","MISDEMEANOR COMPLAINT FILED","WESTERN","HAROLD WAY",34.0994,-118.3093,"POINT (-118.3093 34.0994)","06/05/2020 12:00:00 AM","1252","HOLLYWOOD",4206,23,2020-06-05,6
130,201000709,"RFC","05/23/2020 12:00:00 AM","1515","10","West Valley","1061",27,"M","W","16","Narcotic Drug Laws","M","11550(A)HS","UNDER INFLUENCE CNTL SUB","CITY ATTORNEY REJECT","19700    VENTURA                      BL",NA,34.1725,-118.563,"POINT (-118.563 34.1725)",NA,NA,NA,NA,21,2020-05-23,5
131,5938016,"BOOKING","05/23/2020 12:00:00 AM","0310","05","Harbor","0513",34,"F","B","06","Larceny","F","459PCAUTO","BURGLARY FROM VEHICLE","FELONY COMPLAINT FILED","1200    PACIFIC COAST                HY",NA,33.7898,-118.298,"POINT (-118.298 33.7898)","05/23/2020 12:00:00 AM","0557","HARBOR",4205,21,2020-05-23,5
132,5941467,"BOOKING","05/28/2020 12:00:00 AM","0440","15","N Hollywood","1585",54,"M","B","07","Vehicle Theft","F","10851(A)VC","TAKE VEHICLE W/O OWNER'S CONSENT","MISDEMEANOR COMPLAINT FILED","VENTURA                      BL","VINELAND                     BL",34.1405,-118.3702,"POINT (-118.3702 34.1405)","05/28/2020 12:00:00 AM","1005","VALLEY - JAIL DIV",4279,22,2020-05-28,5
133,5945104,"BOOKING","05/30/2020 12:00:00 AM","2330","01","Central","0185",39,"F","B","12","Weapon (carry/poss)","F","29800(A)1PC","POSS F/ARM BY CONVICTED FELON/ADDICT/ETC","FELONY COMPLAINT FILED","900 S  BROADWAY",NA,34.0423,-118.2561,"POINT (-118.2561 34.0423)","05/31/2020 12:00:00 AM","0215","METRO - JAIL DIVISION",4273,22,2020-05-30,5
134,5942125,"BOOKING","05/28/2020 12:00:00 AM","1520","12","77th Street","1257",27,"M","H","08","Other Assaults","M","148(A)(1)PC","OBSTRUCT/ETC PUB OFCR/ETC","MISDEMEANOR COMPLAINT FILED","77TH                         ST","HOOVER                       AV",33.9698,-118.2871,"POINT (-118.2871 33.9698)","05/28/2020 12:00:00 AM","1721","77TH ST",4212,22,2020-05-28,5
135,5947641,"BOOKING","06/03/2020 12:00:00 AM","0005","11","Northeast","1147",19,"M","H","07","Vehicle Theft","F","10851(A)VC","TAKE VEHICLE W/O OWNER'S CONSENT","DISTRICT ATTORNEY REJECT","2800    FUTURE                       ST",NA,34.099,-118.2331,"POINT (-118.2331 34.099)","06/03/2020 12:00:00 AM","0415","METRO - JAIL DIVISION",4273,23,2020-06-03,6
136,5944383,"BOOKING","05/30/2020 12:00:00 AM","0040","14","Pacific","1494",26,"M","H","16","Narcotic Drug Laws","F","11360(A)HS","TRANSPORT/SELL/FURNISH/ETC MARIJUANA","849(B)(1) PC/TECHNICAL ARREST","400    WORLD                        WY",NA,33.9433,-118.4072,"POINT (-118.4072 33.9433)","05/30/2020 12:00:00 AM","0236","PACIFIC",4214,22,2020-05-30,5
137,5939587,"BOOKING","05/25/2020 12:00:00 AM","2025","09","Van Nuys","0909",41,"M","H","09","Forgery/Counterfeit","F","472PC","FORGERY/COUNTERFEIT PUBLIC/CORPORATE SEAL","MISDEMEANOR COMPLAINT FILED","SHERMAN                      WY","ALLOTT                       AV",34.2012,-118.4281,"POINT (-118.4281 34.2012)","05/25/2020 12:00:00 AM","2205","VALLEY - JAIL DIV",4279,22,2020-05-25,5
138,5940283,"BOOKING","05/26/2020 12:00:00 AM","1935","05","Harbor","0557",32,"M","H","16","Narcotic Drug Laws","F","11378HS","POSSESSION CONTROLLED SUBSTANCE FOR SALE","849(B)(1) PC/TECHNICAL ARREST","GAFFEY                       ST","4TH                          ST",33.7406,-118.2923,"POINT (-118.2923 33.7406)","05/26/2020 12:00:00 AM","2123","HARBOR",4205,22,2020-05-26,5
139,5947100,"BOOKING","06/02/2020 12:00:00 AM","1220","12","77th Street","1211",30,"M","B","08","Other Assaults","F","422(A)PC","TERRORIZE CAUSING FEAR","DISTRICT ATTORNEY REJECT","2500    4TH                          AV",NA,33.99,-118.3215,"POINT (-118.3215 33.99)","06/02/2020 12:00:00 AM","1519","77TH ST",4212,23,2020-06-02,6
140,5944471,"BOOKING","05/30/2020 12:00:00 AM","0633","01","Central","0124",38,"M","H","04","Aggravated Assault","F","245(A)(1)PC","ADW, NOT FIREARM, W/GBI","FELONY COMPLAINT FILED","200 N  SPRING                       ST",NA,34.0539,-118.2436,"POINT (-118.2436 34.0539)","05/30/2020 12:00:00 AM","0929","METRO - JAIL DIVISION",4273,22,2020-05-30,5
141,5938716,"BOOKING","05/24/2020 12:00:00 AM","0745","14","Pacific","1494",24,"M","B","16","Narcotic Drug Laws","F","11360(A)HS","TRANSPORT/SELL/FURNISH/ETC MARIJUANA","849(B)(1) PC/TECHNICAL ARREST","400    WORLD WAY",NA,33.9433,-118.4072,"POINT (-118.4072 33.9433)","05/24/2020 12:00:00 AM","1020","PACIFIC",4214,21,2020-05-24,5
143,5945649,"BOOKING","05/31/2020 12:00:00 AM","2128","01","Central","0155",23,"M","B","12","Weapon (carry/poss)","F","25400(A)1PC","CARRY CONCEALED WEAPON IN VEHICLE","MISDEMEANOR COMPLAINT FILED","3RD                          ST","SAN PEDRO                    PL",34.0448,-118.2474,"POINT (-118.2474 34.0448)","06/01/2020 12:00:00 AM","0005","METRO - JAIL DIVISION",4273,22,2020-05-31,5
144,5938738,"BOOKING","05/24/2020 12:00:00 AM","0830","14","Pacific","1494",20,"M","B","16","Narcotic Drug Laws","F","11360(A)HS","TRANSPORT/SELL/FURNISH/ETC MARIJUANA","849(B)(1) PC/TECHNICAL ARREST","500    WORLD WAY",NA,33.9428,-118.4054,"POINT (-118.4054 33.9428)","05/24/2020 12:00:00 AM","1144","PACIFIC",4214,21,2020-05-24,5
146,5944707,"BOOKING","05/30/2020 12:00:00 AM","1007","19","Mission","1911",59,"M","H","04","Aggravated Assault","F","245(A)(1)PC","ADW, NOT FIREARM, W/GBI","FELONY COMPLAINT FILED","ENCINITAS                    AV","ROXFORD",34.31,-118.4808,"POINT (-118.4808 34.31)","05/30/2020 12:00:00 AM","1244","VALLEY - JAIL DIV",4279,22,2020-05-30,5
147,5948469,"BOOKING","06/04/2020 12:00:00 AM","0320","14","Pacific","1431",35,"M","B","08","Other Assaults","F","422(A)PC","TERRORIZE CAUSING FEAR","DISTRICT ATTORNEY REJECT","1600    PACIFIC                      AV",NA,33.9874,-118.472,"POINT (-118.472 33.9874)","06/04/2020 12:00:00 AM","0417","PACIFIC",4214,23,2020-06-04,6
149,5947018,"BOOKING","06/02/2020 12:00:00 AM","1030","06","Hollywood","0679",23,"F","B","04","Aggravated Assault","F","273.5(A)PC","CORPORAL INJURY ON SPOUSE/COHABITANT/ETC","OTHER (REQUIRES ADDITION ACTION)","1000    ARDMORE",NA,34.0885,-118.3019,"POINT (-118.3019 34.0885)","06/02/2020 12:00:00 AM","1138","HOLLYWOOD",4206,23,2020-06-02,6
151,5947985,"BOOKING","06/03/2020 12:00:00 AM","2040","12","77th Street","1283",17,"F","H","26","Non-Criminal Detention","D","300(D)WI","FAIL PROTECT CHILD FROM SEXUAL ABUSE",NA,"10000 S  WESTERN                      AV",NA,33.945,-118.309,"POINT (-118.309 33.945)","06/03/2020 12:00:00 AM","2206","77TH ST",4212,23,2020-06-03,6
153,5949085,"BOOKING","06/05/2020 12:00:00 AM","0350","07","Wilshire","0723",33,"M","B","08","Other Assaults","F","422(A)PC","TERRORIZE CAUSING FEAR","CITY ATTORNEY REJECT","100 S  HARPER                       AV",NA,34.0743,-118.369,"POINT (-118.369 34.0743)","06/05/2020 12:00:00 AM","0534","METRO - JAIL DIVISION",4273,23,2020-06-05,6
154,5942458,"BOOKING","05/28/2020 12:00:00 AM","1300","17","Devonshire","1764",45,"M","H","16","Narcotic Drug Laws","F","11370.1AHS","POSS C/SUB WHILE ARMED W/LOADED FIREARM","849(B)(1) PC/TECHNICAL ARREST","9300    SHIRLEY                      AV",NA,34.2391,-118.558,"POINT (-118.558 34.2391)","05/28/2020 12:00:00 AM","2139","VALLEY - JAIL DIV",4279,22,2020-05-28,5
155,5940655,"BOOKING","05/27/2020 12:00:00 AM","1120","10","West Valley","1029",18,"M","H","24","Miscellaneous Other Violations","M","594(A)(2)PC","DAMAGE PROPERTY","MISDEMEANOR COMPLAINT FILED","16000    VANOWEN                      ST",NA,34.1976,-118.4799,"POINT (-118.4799 34.1976)","05/27/2020 12:00:00 AM","1208","VALLEY - JAIL DIV",4279,22,2020-05-27,5
158,5939261,"BOOKING","05/25/2020 12:00:00 AM","0808","14","Pacific","1494",44,"M","B","16","Narcotic Drug Laws","F","11360(A)HS","TRANSPORT/SELL/FURNISH/ETC MARIJUANA","849(B)(1) PC/TECHNICAL ARREST","200    WORLD WAY                    WY",NA,33.942,-118.4095,"POINT (-118.4095 33.942)","05/25/2020 12:00:00 AM","1007","PACIFIC",4214,22,2020-05-25,5
159,5939433,"BOOKING","05/25/2020 12:00:00 AM","1410","12","77th Street","1218",35,"M","B","03","Robbery","F","211PC","ROBBERY","DISTRICT ATTORNEY REJECT","FLOWER                       ST","52ND                         PL",33.9923,-118.287,"POINT (-118.287 33.9923)","05/25/2020 12:00:00 AM","1719","77TH ST",4212,22,2020-05-25,5
160,5950202,"BOOKING","06/06/2020 12:00:00 AM","2330","05","Harbor","0557",20,"M","H","07","Vehicle Theft","F","10851(A)VC","TAKE VEHICLE W/O OWNER'S CONSENT","DISTRICT ATTORNEY REJECT","1ST                          ST","GAFFEY                       ST",33.7433,-118.2923,"POINT (-118.2923 33.7433)","06/07/2020 12:00:00 AM","0031","HARBOR",4205,23,2020-06-06,6
161,5945913,"BOOKING","06/01/2020 12:00:00 AM","0345","06","Hollywood","0668",50,"F","W","05","Burglary","F","463(A)PC","2ND DEGREE BURGLARY DURING EARTHQUAKE/ETC","FELONY COMPLAINT FILED","VIRGINIA","WILTON",34.0918,-118.3136,"POINT (-118.3136 34.0918)","06/01/2020 12:00:00 AM","0734","HOLLYWOOD",4206,23,2020-06-01,6
162,5939663,"BOOKING","05/25/2020 12:00:00 AM","1830","08","West LA","0884",48,"M","W","22","Driving Under Influence","M","23152(F)VC","DUI OF ANY DRUG","MISDEMEANOR COMPLAINT FILED","OLYMPIC","WESTWOOD",34.0439,-118.4317,"POINT (-118.4317 34.0439)","05/26/2020 12:00:00 AM","0005","METRO - JAIL DIVISION",4273,22,2020-05-25,5
163,5938662,"BOOKING","05/24/2020 12:00:00 AM","0550","14","Pacific","1494",29,"M","B","16","Narcotic Drug Laws","F","11360(A)HS","TRANSPORT/SELL/FURNISH/ETC MARIJUANA","849(B)(1) PC/TECHNICAL ARREST","400    WORLD WAY",NA,33.9433,-118.4072,"POINT (-118.4072 33.9433)","05/24/2020 12:00:00 AM","0752","PACIFIC",4214,21,2020-05-24,5
165,5940298,"BOOKING","05/26/2020 12:00:00 AM","2010","06","Hollywood","0678",35,"F","B","08","Other Assaults","F","422(A)PC","TERRORIZE CAUSING FEAR","OTHER (REQUIRES ADDITION ACTION)","800 N  KINGSLEY                     DR",NA,34.0849,-118.3028,"POINT (-118.3028 34.0849)","05/26/2020 12:00:00 AM","2215","HOLLYWOOD",4206,22,2020-05-26,5
167,5941461,"BOOKING","05/28/2020 12:00:00 AM","0740","14","Pacific","1494",28,"M","H","16","Narcotic Drug Laws","F","11378HS","POSSESSION CONTROLLED SUBSTANCE FOR SALE","849(B)(1) PC/TECHNICAL ARREST","600    WORLDWAY",NA,33.942,-118.4095,"POINT (-118.4095 33.942)","05/28/2020 12:00:00 AM","0949","PACIFIC",4214,22,2020-05-28,5
169,5938074,"BOOKING","05/23/2020 12:00:00 AM","0735","14","Pacific","1494",28,"M","B","16","Narcotic Drug Laws","F","11352(A)HS","TRANSPORT/SELL/ETC CONTROLLED SUBSTANCE","849(B)(1) PC/TECHNICAL ARREST","100    WORLDWAY",NA,33.942,-118.4095,"POINT (-118.4095 33.942)","05/23/2020 12:00:00 AM","0917","PACIFIC",4214,21,2020-05-23,5
171,5942937,"BOOKING","05/29/2020 12:00:00 AM","0810","12","77th Street","1256",32,"M","B","13","Prostitution/Allied","F","266H(A)PC","PIMPING","FELONY COMPLAINT FILED","FIGUEROA","FLORENCE",33.9747,-118.2827,"POINT (-118.2827 33.9747)","05/29/2020 12:00:00 AM","1103","77TH ST",4212,22,2020-05-29,5
173,5948832,"BOOKING","06/04/2020 12:00:00 AM","2030","01","Central","0195",37,"M","H","07","Vehicle Theft","F","10851(A)VC","TAKE VEHICLE W/O OWNER'S CONSENT","CITY ATTORNEY REJECT","LOS ANGELES","WASHINGTON",34.0314,-118.2629,"POINT (-118.2629 34.0314)","06/04/2020 12:00:00 AM","2223","77TH ST",4212,23,2020-06-04,6
175,5940498,"BOOKING","05/27/2020 12:00:00 AM","0315","12","77th Street","1268",29,"M","B","07","Vehicle Theft","F","A10851(A)VC","ATTEMPT - TAKE VEHICLE W/O CONSENT","CITY ATTORNEY REJECT","8500 S  BROADWAY",NA,33.961,-118.2783,"POINT (-118.2783 33.961)","05/27/2020 12:00:00 AM","0528","77TH ST",4212,22,2020-05-27,5
177,5944445,"BOOKING","05/30/2020 12:00:00 AM","0500","06","Hollywood","0636",51,"M","B","05","Burglary","F","459PC","BURGLARY","MISDEMEANOR COMPLAINT FILED","WILCOX","YUCCA",34.1039,-118.331,"POINT (-118.331 34.1039)","05/30/2020 12:00:00 AM","0706","VALLEY - JAIL DIV",4279,22,2020-05-30,5
178,5949521,"BOOKING","06/05/2020 12:00:00 AM","2245","10","West Valley","1039",31,"M","B","05","Burglary","F","459PCCOM","COMMERCIAL BURGLARY","DISTRICT ATTORNEY REJECT","6600    VALJEAN                      AV",NA,34.1903,-118.4859,"POINT (-118.4859 34.1903)","06/06/2020 12:00:00 AM","0203","VALLEY - JAIL DIV",4279,23,2020-06-05,6
180,5946156,"BOOKING","06/01/2020 12:00:00 AM","1815","09","Van Nuys","0926",36,"M","H","12","Weapon (carry/poss)","F","21810PC","MFG/SELL/GIVE/LEND POSSESS METAL KNUCKLES","MISDEMEANOR COMPLAINT FILED","HAMLIN","VAN NUYS",34.1887,-118.4487,"POINT (-118.4487 34.1887)","06/01/2020 12:00:00 AM","2018","VALLEY - JAIL DIV",4279,23,2020-06-01,6
182,5946519,"BOOKING","06/01/2020 12:00:00 AM","2050","07","Wilshire","0706",27,"F","B","23","Moving Traffic Violations","F","2800.2(A)VC","EVADE PO:DISREGARD SAFETY","FELONY COMPLAINT FILED","REXFORD                      DR","CARMELITA                    AV",34.0838,-118.3388,"POINT (-118.3388 34.0838)","06/02/2020 12:00:00 AM","0050","77TH ST",4212,23,2020-06-01,6
183,5941364,"BOOKING","05/28/2020 12:00:00 AM","0220","09","Van Nuys","0933",31,"F","H","05","Burglary","F","459PC","BURGLARY","FELONY COMPLAINT FILED","14500    VICTORY                      BL",NA,34.1867,-118.449,"POINT (-118.449 34.1867)","05/28/2020 12:00:00 AM","0430","VALLEY - JAIL DIV",4279,22,2020-05-28,5
184,5940824,"BOOKING","05/27/2020 12:00:00 AM","1500","19","Mission","1967",29,"M","H","06","Larceny","F","487(A)PC","GRAND THEFT MONEY/PROPERTY > $400","FELONY COMPLAINT FILED","9200    DORRINGTON                   PL",NA,34.2372,-118.436,"POINT (-118.436 34.2372)","05/27/2020 12:00:00 AM","1728","VALLEY - JAIL DIV",4279,22,2020-05-27,5
185,5945956,"BOOKING","06/01/2020 12:00:00 AM","0745","12","77th Street","1273",21,"M","B","24","Miscellaneous Other Violations","F","594(B)(1)PC","VANDALISM W/LOSS VALUED EQ OR > $400","CITY ATTORNEY REJECT","1400 W  90TH                         PL",NA,33.9551,-118.3007,"POINT (-118.3007 33.9551)","06/01/2020 12:00:00 AM","0956","77TH ST",4212,23,2020-06-01,6
187,5946943,"BOOKING","06/02/2020 12:00:00 AM","0330","12","77th Street","1213",19,"M","H","24","Miscellaneous Other Violations","F","594(A)(2)PC","DAMAGE PROPERTY","OTHER (REQUIRES ADDITION ACTION)","1900 W  SLAUSON                      AV",NA,33.9921,-118.3108,"POINT (-118.3108 33.9921)","06/02/2020 12:00:00 AM","0655","77TH ST",4212,23,2020-06-02,6
189,5945760,"BOOKING","05/31/2020 12:00:00 AM","2200","02","Rampart","0219",37,"M","H","05","Burglary","F","463(A)PC","2ND DEGREE BURGLARY DURING EARTHQUAKE/ETC","849(B)(1) PC/TECHNICAL ARREST","1100 W  SUNSET                       BL",NA,34.0657,-118.2494,"POINT (-118.2494 34.0657)","06/01/2020 12:00:00 AM","0212","METRO - JAIL DIVISION",4273,22,2020-05-31,5
190,5946499,"BOOKING","06/01/2020 12:00:00 AM","2120","06","Hollywood","0644",30,"F","B","04","Aggravated Assault","F","245(C)PC","ADW PO/FIREMAN W/O FIREARM/GBI","DISTRICT ATTORNEY REJECT","1400 N  POINSETTIA                   PL",NA,34.0962,-118.3483,"POINT (-118.3483 34.0962)","06/02/2020 12:00:00 AM","0038","77TH ST",4212,23,2020-06-01,6
191,5939075,"BOOKING","05/24/2020 12:00:00 AM","2110","21","Topanga","2189",36,"M","W","07","Vehicle Theft","F","10851(A)VC","TAKE VEHICLE W/O OWNER'S CONSENT","FELONY COMPLAINT FILED","4900    BASCULE                      AV",NA,34.1596,-118.5863,"POINT (-118.5863 34.1596)","05/25/2020 12:00:00 AM","0035","VALLEY - JAIL DIV",4279,21,2020-05-24,5
192,5939496,"BOOKING","05/25/2020 12:00:00 AM","1642","13","Newton","1371",27,"F","H","07","Vehicle Theft","F","10851(A)VC","TAKE VEHICLE W/O OWNER'S CONSENT","DISTRICT ATTORNEY REJECT","52ND                         ST","GRAND",33.9958,-118.2789,"POINT (-118.2789 33.9958)","05/25/2020 12:00:00 AM","1906","77TH ST",4212,22,2020-05-25,5
193,5946537,"BOOKING","06/01/2020 12:00:00 AM","2200","03","Southwest","0332",35,"F","H","08","Other Assaults","F","422(A)PC","TERRORIZE CAUSING FEAR","849(B)(1) PC/TECHNICAL ARREST","FARMDALE                     AV","W  JEFFERSON",34.0255,-118.3461,"POINT (-118.3461 34.0255)","06/02/2020 12:00:00 AM","0102","77TH ST",4212,23,2020-06-01,6
194,5945325,"BOOKING","05/31/2020 12:00:00 AM","0200","07","Wilshire","0702",21,"F","H","05","Burglary","F","463(A)PC","2ND DEGREE BURGLARY DURING EARTHQUAKE/ETC","849(B)(1) PC/TECHNICAL ARREST","7300    MELROSE                      AV",NA,34.0836,-118.3487,"POINT (-118.3487 34.0836)","05/31/2020 12:00:00 AM","1135","METRO - JAIL DIVISION",4273,22,2020-05-31,5
196,5939439,"BOOKING","05/25/2020 12:00:00 AM","1400","03","Southwest","0338",34,"M","B","07","Vehicle Theft","F","10851(A)VC","TAKE VEHICLE W/O OWNER'S CONSENT","CITY ATTORNEY REJECT","VERMONT","JEFFERSON",34.0255,-118.2915,"POINT (-118.2915 34.0255)","05/25/2020 12:00:00 AM","1729","77TH ST",4212,22,2020-05-25,5
198,5938024,"BOOKING","05/23/2020 12:00:00 AM","0250","20","Olympic","2031",25,"M","H","04","Aggravated Assault","F","245(A)(4)PC","ASSAULT LIKELY TO PRODUCE GBI","FELONY COMPLAINT FILED","700 S  WESTERN                      AV",NA,34.0599,-118.3139,"POINT (-118.3139 34.0599)","05/23/2020 12:00:00 AM","0614","METRO - JAIL DIVISION",4273,21,2020-05-23,5
199,201009569,"RFC","05/29/2020 12:00:00 AM","1905","10","West Valley","1021",52,"M","W","24","Miscellaneous Other Violations","M","594(A)PC","VANDALISM","MISDEMEANOR COMPLAINT FILED","TAMPA                        AV","VANOWEN                      ST",34.1938,-118.5534,"POINT (-118.5534 34.1938)",NA,NA,NA,NA,22,2020-05-29,5
200,5947565,"BOOKING","06/02/2020 12:00:00 AM","2300","05","Harbor","0587",23,"M","H","12","Weapon (carry/poss)","F","30305(A)1PC","ILLEGAL POSSESSION OF AMMUNITION","FELONY COMPLAINT FILED","SHEPHARD","GAFFEY",33.7136,-118.2904,"POINT (-118.2904 33.7136)","06/03/2020 12:00:00 AM","0219","HARBOR",4205,23,2020-06-02,6
201,5949964,"BOOKING","06/06/2020 12:00:00 AM","1405","03","Southwest","0396",38,"M","H","15","Against Family/Child","M","273.6(A)PC","DISOBEY DOMESTIC RELATIONS COURT ORDER","MISDEMEANOR COMPLAINT FILED","800 W  43RD                         PL",NA,34.0046,-118.2894,"POINT (-118.2894 34.0046)","06/06/2020 12:00:00 AM","1618","77TH ST",4212,23,2020-06-06,6
202,5948844,"BOOKING","06/04/2020 12:00:00 AM","1700","02","Rampart","0285",27,"M","H","04","Aggravated Assault","F","273.5(A)PC","CORPORAL INJURY ON SPOUSE/COHABITANT/ETC","DISTRICT ATTORNEY REJECT","1600 W  11TH                         PL",NA,34.047,-118.2756,"POINT (-118.2756 34.047)","06/04/2020 12:00:00 AM","2235","77TH ST",4212,23,2020-06-04,6
203,5943406,"BOOKING","05/29/2020 12:00:00 AM","1013","21","Topanga","2157",43,"M","W","07","Vehicle Theft","F","10851(A)VC","TAKE VEHICLE W/O OWNER'S CONSENT","CITY ATTORNEY REJECT","6700    DE SOTO                      AV",NA,34.1915,-118.5884,"POINT (-118.5884 34.1915)","05/29/2020 12:00:00 AM","1306","VALLEY - JAIL DIV",4279,22,2020-05-29,5
204,5939989,"BOOKING","05/26/2020 12:00:00 AM","1105","03","Southwest","0396",55,"M","B","06","Larceny","F","666(A)PC","PETTY THEFT WITH SPECIFIC PRIOR","FELONY COMPLAINT FILED","900 W  43RD                         PL",NA,34.0046,-118.291,"POINT (-118.291 34.0046)","05/26/2020 12:00:00 AM","1303","77TH ST",4212,22,2020-05-26,5
205,5949299,"BOOKING","06/05/2020 12:00:00 AM","1700","19","Mission","1959",32,"M","H","12","Weapon (carry/poss)","F","30305(A)1PC","ILLEGAL POSSESSION OF AMMUNITION","849(B)(1) PC/TECHNICAL ARREST","9900    BARTEE                       AV",NA,34.2503,-118.4319,"POINT (-118.4319 34.2503)","06/05/2020 12:00:00 AM","2002","VALLEY - JAIL DIV",4279,23,2020-06-05,6
206,5945310,"BOOKING","05/31/2020 12:00:00 AM","0200","07","Wilshire","0702",19,"M","H","05","Burglary","F","463(A)PC","2ND DEGREE BURGLARY DURING EARTHQUAKE/ETC","849(B)(1) PC/TECHNICAL ARREST","7300    MELROSE                      AV",NA,34.0836,-118.3487,"POINT (-118.3487 34.0836)","05/31/2020 12:00:00 AM","1100",NA,NA,22,2020-05-31,5
207,5940447,"BOOKING","05/27/2020 12:00:00 AM","0100","19","Mission","1994",37,"M","H","24","Miscellaneous Other Violations","F","496(B)PC","DEALER NOT DETERMINING OWNERSHIP","FELONY COMPLAINT FILED","14600    ROSCOE                       BL",NA,34.2215,-118.4512,"POINT (-118.4512 34.2215)","05/27/2020 12:00:00 AM","0313","VALLEY - JAIL DIV",4279,22,2020-05-27,5
209,5937965,"BOOKING","05/23/2020 12:00:00 AM","0050","13","Newton","1325",29,"M","H","12","Weapon (carry/poss)","F","25400(A)1PC","CARRY CONCEALED WEAPON IN VEHICLE","MISDEMEANOR COMPLAINT FILED","HOOPER                       ST","ADAMS                        BL",34.0164,-118.2502,"POINT (-118.2502 34.0164)","05/23/2020 12:00:00 AM","0320","77TH ST",4212,21,2020-05-23,5
210,5945392,"BOOKING","05/31/2020 12:00:00 AM","1210","01","Central","0163",60,"M","B","05","Burglary","F","463(A)PC","2ND DEGREE BURGLARY DURING EARTHQUAKE/ETC","FELONY COMPLAINT FILED","8TH","BROADWAY",34.0445,-118.2558,"POINT (-118.2558 34.0445)","05/31/2020 12:00:00 AM","1546","METRO - JAIL DIVISION",4273,22,2020-05-31,5
211,5939643,"BOOKING","05/25/2020 12:00:00 AM","2100","04","Hollenbeck","0464",30,"M","H","12","Weapon (carry/poss)","F","25400(A)2PC","CARRYING CONCEALED WEAPON UPON PERSON","FELONY COMPLAINT FILED","300 N  SAINT LOUIS                  ST",NA,34.0445,-118.2116,"POINT (-118.2116 34.0445)","05/25/2020 12:00:00 AM","2335","METRO - JAIL DIVISION",4273,22,2020-05-25,5
214,5945371,"BOOKING","05/31/2020 12:00:00 AM","0200","07","Wilshire","0702",27,"M","B","05","Burglary","F","463(A)PC","2ND DEGREE BURGLARY DURING EARTHQUAKE/ETC","849(B)(1) PC/TECHNICAL ARREST","7300    MELROSE                      AV",NA,34.0836,-118.3487,"POINT (-118.3487 34.0836)","05/31/2020 12:00:00 AM","1408","77TH ST",4212,22,2020-05-31,5
215,5950225,"BOOKING","06/06/2020 12:00:00 AM","2140","18","Southeast","1839",39,"M","H","04","Aggravated Assault","F","273.5(A)PC","CORPORAL INJURY ON SPOUSE/COHABITANT/ETC","CITY ATTORNEY REJECT","2200 E  105TH                        ST",NA,33.9406,-118.2328,"POINT (-118.2328 33.9406)","06/07/2020 12:00:00 AM","0107","77TH ST",4212,23,2020-06-06,6
216,5938700,"BOOKING","05/24/2020 12:00:00 AM","0300","04","Hollenbeck","0443",30,"M","H","04","Aggravated Assault","F","245(A)(2)PC","ADW W/FIREARM","FELONY COMPLAINT FILED","2000    MARENGO                      ST",NA,34.0609,-118.2052,"POINT (-118.2052 34.0609)","05/24/2020 12:00:00 AM","0918","METRO - JAIL DIVISION",4273,21,2020-05-24,5
217,5947079,"BOOKING","06/02/2020 12:00:00 AM","1100","11","Northeast","1151",58,"M","H","08","Other Assaults","F","422(A)PC","TERRORIZE CAUSING FEAR","CITY ATTORNEY REJECT","1600 N  VERMONT                      AV",NA,34.0986,-118.2962,"POINT (-118.2962 34.0986)","06/02/2020 12:00:00 AM","1423","METRO - JAIL DIVISION",4273,23,2020-06-02,6
219,5949291,"BOOKING","06/05/2020 12:00:00 AM","1900","12","77th Street","1258",29,"F","B","08","Other Assaults","F","422(A)PC","TERRORIZE CAUSING FEAR","DISTRICT ATTORNEY REJECT","100 W  74TH                         ST",NA,33.9727,-118.2739,"POINT (-118.2739 33.9727)","06/05/2020 12:00:00 AM","1950","77TH ST",4212,23,2020-06-05,6
222,5947888,"BOOKING","06/03/2020 12:00:00 AM","1015","18","Southeast","1802",29,"F","H","11","Receive Stolen Property","F","496(A)PC","RECEIVING KNOWN STOLEN PROPERTY >$950","849(B)(1) PC/TECHNICAL ARREST","8800 S  BROADWAY",NA,33.9574,-118.2782,"POINT (-118.2782 33.9574)","06/03/2020 12:00:00 AM","1909","77TH ST",4212,23,2020-06-03,6
224,5940871,"BOOKING","05/27/2020 12:00:00 AM","1635","12","77th Street","1213",31,"M","B","08","Other Assaults","F","422(A)PC","TERRORIZE CAUSING FEAR","849(B)(1) PC/TECHNICAL ARREST","1900 W  52ND                         ST",NA,33.995,-118.3113,"POINT (-118.3113 33.995)","05/27/2020 12:00:00 AM","1847","77TH ST",4212,22,2020-05-27,5
225,5942622,"BOOKING","05/29/2020 12:00:00 AM","0020","01","Central","0163",51,"M","W","06","Larceny","F","459PCAUTO","BURGLARY FROM VEHICLE","DISTRICT ATTORNEY REJECT","SPRING","4TH                          ST",34.0438,-118.2547,"POINT (-118.2547 34.0438)","05/29/2020 12:00:00 AM","0345","METRO - JAIL DIVISION",4273,22,2020-05-29,5
227,5950048,"BOOKING","06/06/2020 12:00:00 AM","1830","12","77th Street","1215",60,"M","B","04","Aggravated Assault","F","245(A)(1)PC","ADW, NOT FIREARM, W/GBI","DISTRICT ATTORNEY REJECT","1300 W  56TH                         ST",NA,33.9916,-118.2981,"POINT (-118.2981 33.9916)","06/06/2020 12:00:00 AM","2011","77TH ST",4212,23,2020-06-06,6
229,5945528,"BOOKING","05/31/2020 12:00:00 AM","1910","05","Harbor","0529",23,"M","H","04","Aggravated Assault","F","23110(B)VC","THROW SUBSTANCE AT VEHICLE W/GBI INTENT","FELONY COMPLAINT FILED","ANAHEIM","FOOTE",33.782,-118.2294,"POINT (-118.2294 33.782)","05/31/2020 12:00:00 AM","2155","HARBOR",4205,22,2020-05-31,5
230,5938101,"BOOKING","05/23/2020 12:00:00 AM","0855","11","Northeast","1161",31,"M","H","07","Vehicle Theft","F","10851(A)VC","TAKE VEHICLE W/O OWNER'S CONSENT","DISTRICT ATTORNEY REJECT","MIRAPOSA","FOUNTAIN",34.0931,-118.2983,"POINT (-118.2983 34.0931)","05/23/2020 12:00:00 AM","1038","HOLLYWOOD",4206,21,2020-05-23,5
232,200511199,"RFC","05/30/2020 12:00:00 AM","1155","05","Harbor","0566",35,"M","H","17","Liquor Laws","I","25620BP","OPEN ALCOHOLIC BEV IN PUBLIC PARK/PLACE","MISDEMEANOR COMPLAINT FILED","10TH","BEACON",33.7351,-118.2805,"POINT (-118.2805 33.7351)",NA,NA,NA,NA,22,2020-05-30,5
233,5946917,"BOOKING","06/02/2020 12:00:00 AM","0410","13","Newton","1309",54,"M","B","16","Narcotic Drug Laws","F","4573PC","BRING/SEND NARC/CONT SUBS/ALCOHOL TO JAIL","CITY ATTORNEY REJECT","7TH","ALAMEDA",34.0351,-118.2386,"POINT (-118.2386 34.0351)","06/02/2020 12:00:00 AM","0506","METRO - JAIL DIVISION",4273,23,2020-06-02,6
235,5947840,"BOOKING","06/03/2020 12:00:00 AM","1500","01","Central","0153",53,"M","B","04","Aggravated Assault","F","245(A)(1)PC","ADW, NOT FIREARM, W/GBI","849(B)(1) PC/TECHNICAL ARREST","5TH","BROADWAY",34.0484,-118.2512,"POINT (-118.2512 34.0484)","06/03/2020 12:00:00 AM","1619","METRO - JAIL DIVISION",4273,23,2020-06-03,6
237,5945309,"BOOKING","05/31/2020 12:00:00 AM","0200","07","Wilshire","0702",19,"M","H","05","Burglary","F","463(A)PC","2ND DEGREE BURGLARY DURING EARTHQUAKE/ETC","849(B)(1) PC/TECHNICAL ARREST","7300    MELROSE                      AV",NA,34.0836,-118.3487,"POINT (-118.3487 34.0836)","05/31/2020 12:00:00 AM","1058","METRO - JAIL DIVISION",4273,22,2020-05-31,5
238,5948784,"BOOKING","06/04/2020 12:00:00 AM","1930","18","Southeast","1836",59,"F","B","04","Aggravated Assault","F","245(A)(1)PC","ADW, NOT FIREARM, W/GBI","FELONY COMPLAINT FILED","1200 E  108TH                        ST",NA,33.9378,-118.2542,"POINT (-118.2542 33.9378)","06/04/2020 12:00:00 AM","2104","77TH ST",4212,23,2020-06-04,6
239,5947519,"BOOKING","06/02/2020 12:00:00 AM","2345","15","N Hollywood","1515",26,"M","H","07","Vehicle Theft","F","10851(A)VC","TAKE VEHICLE W/O OWNER'S CONSENT","MISDEMEANOR COMPLAINT FILED","LANKERSHIM                   BL","KITTRIDGE                    ST",34.1903,-118.3878,"POINT (-118.3878 34.1903)","06/03/2020 12:00:00 AM","0118","VALLEY - JAIL DIV",4279,23,2020-06-02,6
241,5949776,"BOOKING","06/06/2020 12:00:00 AM","0100","02","Rampart","0215",34,"F","B","07","Vehicle Theft","F","487(D)(1)PC","GRAND THEFT AUTO/HORSE/ETC","DISTRICT ATTORNEY REJECT","DILLON","TEMPLE",34.0758,-118.2809,"POINT (-118.2809 34.0758)","06/06/2020 12:00:00 AM","0336","METRO - JAIL DIVISION",4273,23,2020-06-06,6
242,5946397,"BOOKING","06/01/2020 12:00:00 AM","0805","06","Hollywood","0645",21,"M","B","05","Burglary","F","463(A)PC","2ND DEGREE BURGLARY DURING EARTHQUAKE/ETC","849(B)(1) PC/TECHNICAL ARREST","CITRUS","DELONGPRE",34.1006,-118.3417,"POINT (-118.3417 34.1006)","06/01/2020 12:00:00 AM","2259","HOLLYWOOD",4206,23,2020-06-01,6
243,5946527,"BOOKING","06/01/2020 12:00:00 AM","2145","08","West LA","0849",21,"M","W","08","Other Assaults","F","422(A)PC","TERRORIZE CAUSING FEAR","MISDEMEANOR COMPLAINT FILED","8500    WHITWORTH                    DR",NA,34.057,-118.3762,"POINT (-118.3762 34.057)","06/02/2020 12:00:00 AM","0058","VALLEY - JAIL DIV",4279,23,2020-06-01,6
245,5949138,"BOOKING","06/05/2020 12:00:00 AM","0800","18","Southeast","1839",35,"F","H","24","Miscellaneous Other Violations","F","273.6(D)PC","DISOBEY DOMESTIC RELATIONS CRT ORDER W/PR","OTHER (REQUIRES ADDITION ACTION)","2200 E  105TH                        ST",NA,33.9406,-118.2328,"POINT (-118.2328 33.9406)","06/05/2020 12:00:00 AM","1001","77TH ST",4212,23,2020-06-05,6
247,5949363,"BOOKING","06/05/2020 12:00:00 AM","1755","04","Hollenbeck","0418",21,"F","H","23","Moving Traffic Violations","F","2800.2(A)VC","EVADE PO:DISREGARD SAFETY","FELONY COMPLAINT FILED","BURR","COLLIS",34.0962,-118.1804,"POINT (-118.1804 34.0962)","06/05/2020 12:00:00 AM","2138","METRO - JAIL DIVISION",4273,23,2020-06-05,6
250,5938372,"BOOKING","05/23/2020 12:00:00 AM","1815","12","77th Street","1257",20,"M","B","12","Weapon (carry/poss)","F","25400(A)2PC","CARRYING CONCEALED WEAPON UPON PERSON","FELONY COMPLAINT FILED","76TH                         ST","BROADWAY",33.9708,-118.2783,"POINT (-118.2783 33.9708)","05/23/2020 12:00:00 AM","2040","77TH ST",4212,21,2020-05-23,5
251,5940441,"BOOKING","05/27/2020 12:00:00 AM","0130","02","Rampart","0241",29,"M","H","07","Vehicle Theft","F","666.5(A)PC","VEHICLE THEFT W/PRIOR FELONY VC10851/GTA","FELONY COMPLAINT FILED","RAMPART","6TH                          ST",34.0657,-118.2825,"POINT (-118.2825 34.0657)","05/27/2020 12:00:00 AM","0310","METRO - JAIL DIVISION",4273,22,2020-05-27,5
254,5938299,"BOOKING","05/23/2020 12:00:00 AM","1720","11","Northeast","1178",31,"M","H","06","Larceny","F","487(A)PC","GRAND THEFT MONEY/PROPERTY > $400","FELONY COMPLAINT FILED","3400    MERCED                       ST",NA,34.0925,-118.2224,"POINT (-118.2224 34.0925)","05/23/2020 12:00:00 AM","1853","METRO - JAIL DIVISION",4273,21,2020-05-23,5
255,5947801,"BOOKING","06/03/2020 12:00:00 AM","1030","20","Olympic","2034",44,"M","B","06","Larceny","F","487(C)PC","GRAND THEFT PERSON","CITY ATTORNEY REJECT","KINGSLEY                     AV","8TH                          ST",34.0577,-118.3031,"POINT (-118.3031 34.0577)","06/03/2020 12:00:00 AM","1344","77TH ST",4212,23,2020-06-03,6
256,5943675,"BOOKING","05/29/2020 12:00:00 AM","1232","03","Southwest","0379",46,"M","W","24","Miscellaneous Other Violations","M","594(A)(1)PC","DEFACE PROPERTY","MISDEMEANOR COMPLAINT FILED","1000    LEIGHTON                     AV",NA,34.0132,-118.2921,"POINT (-118.2921 34.0132)","05/29/2020 12:00:00 AM","1631","77TH ST",4212,22,2020-05-29,5
257,5944794,"BOOKING","05/30/2020 12:00:00 AM","1600","19","Mission","1906",43,"F","W","04","Aggravated Assault","F","273.5(A)PC","CORPORAL INJURY ON SPOUSE/COHABITANT/ETC","CITY ATTORNEY REJECT","13400    ALMETZ                       ST",NA,34.3274,-118.4247,"POINT (-118.4247 34.3274)","05/30/2020 12:00:00 AM","1840","VALLEY - JAIL DIV",4279,22,2020-05-30,5
259,200512599,"RFC","05/23/2020 12:00:00 AM","1045","05","Harbor","0566",60,"M","H","18","Drunkeness","M","41.27CLAMC","DRINKING IN PUBLIC","MISDEMEANOR COMPLAINT FILED","10TH                         ST","BEACON                       ST",33.7351,-118.2805,"POINT (-118.2805 33.7351)",NA,NA,NA,NA,21,2020-05-23,5
261,5947882,"BOOKING","06/03/2020 12:00:00 AM","1015","18","Southeast","1802",27,"F","H","11","Receive Stolen Property","F","496(A)PC","RECEIVING KNOWN STOLEN PROPERTY >$950","849(B)(1) PC/TECHNICAL ARREST","88TH","BROADWAY",33.9568,-118.2782,"POINT (-118.2782 33.9568)","06/03/2020 12:00:00 AM","1851","77TH ST",4212,23,2020-06-03,6
263,5949268,"BOOKING","06/05/2020 12:00:00 AM","1620","12","77th Street","1266",30,"F","B","08","Other Assaults","F","422(A)PC","TERRORIZE CAUSING FEAR","FELONY COMPLAINT FILED","500 W  81ST                         ST",NA,33.9655,-118.2833,"POINT (-118.2833 33.9655)","06/05/2020 12:00:00 AM","1846","77TH ST",4212,23,2020-06-05,6
264,5949925,"BOOKING","06/06/2020 12:00:00 AM","0930","03","Southwest","0395",45,"M","B","05","Burglary","F","A459PC","ATTEMPT - BURGLARY","DISTRICT ATTORNEY REJECT","4100 S  WESTERN                      AV",NA,34.0091,-118.3089,"POINT (-118.3089 34.0091)","06/06/2020 12:00:00 AM","1306","77TH ST",4212,23,2020-06-06,6
271,5948917,"BOOKING","06/04/2020 12:00:00 AM","2245","03","Southwest","0357",39,"M","B","08","Other Assaults","M","243(E)(1)PC","BATT EX-SPOUSE/FIANCEE/PERSN W/DATING REL","MISDEMEANOR COMPLAINT FILED","1200 W  JEFFERSON                    BL",NA,34.0255,-118.292,"POINT (-118.292 34.0255)","06/05/2020 12:00:00 AM","0037","77TH ST",4212,23,2020-06-04,6
272,5938785,"BOOKING","05/24/2020 12:00:00 AM","0930","12","77th Street","1256",53,"M","H","07","Vehicle Theft","F","487(D)(1)PC","GRAND THEFT AUTO/HORSE/ETC","849(B)(1) PC/TECHNICAL ARREST","300 W  73RD                         ST",NA,33.9737,-118.2783,"POINT (-118.2783 33.9737)","05/24/2020 12:00:00 AM","1402","77TH ST",4212,21,2020-05-24,5
273,5940811,"BOOKING","05/27/2020 12:00:00 AM","1405","04","Hollenbeck","0449",53,"F","H","16","Narcotic Drug Laws","F","11378HS","POSSESSION CONTROLLED SUBSTANCE FOR SALE","FELONY COMPLAINT FILED","MARENGO                      ST","FICKETT                      ST",34.0544,-118.2007,"POINT (-118.2007 34.0544)","05/27/2020 12:00:00 AM","1656","METRO - JAIL DIVISION",4273,22,2020-05-27,5
276,5948096,"BOOKING","06/03/2020 12:00:00 AM","1900","03","Southwest","0398",18,"M","H","24","Miscellaneous Other Violations","F","594(A)(1)PC","DEFACE PROPERTY","849(B)(1) PC/TECHNICAL ARREST","42ND                         PL","HOOVER",34.0062,-118.2872,"POINT (-118.2872 34.0062)","06/04/2020 12:00:00 AM","0015","77TH ST",4212,23,2020-06-03,6
278,5947813,"BOOKING","06/03/2020 12:00:00 AM","1235","03","Southwest","0357",48,"M","W","16","Narcotic Drug Laws","F","4573PC","BRING/SEND NARC/CONT SUBS/ALCOHOL TO JAIL","849(B)(1) PC/TECHNICAL ARREST","36TH                         ST","VERMONT                      AV",34.0231,-118.2915,"POINT (-118.2915 34.0231)","06/03/2020 12:00:00 AM","1424","77TH ST",4212,23,2020-06-03,6
279,5945697,"BOOKING","05/31/2020 12:00:00 AM","2200","02","Rampart","0219",24,"M","H","05","Burglary","F","463(A)PC","2ND DEGREE BURGLARY DURING EARTHQUAKE/ETC","CITY ATTORNEY REJECT","1100 W  SUNSET                       BL",NA,34.0657,-118.2494,"POINT (-118.2494 34.0657)","06/01/2020 12:00:00 AM","0050","METRO - JAIL DIVISION",4273,22,2020-05-31,5
282,5938158,"BOOKING","05/23/2020 12:00:00 AM","1130","19","Mission","1984",17,"F","H",NA,NA,"D","300(A)WI",NA,"DEPARTMENT OF SOCIAL SERVICES","8500    WILLIS                       AV",NA,34.2247,-118.4553,"POINT (-118.4553 34.2247)","05/23/2020 12:00:00 AM","1326","VALLEY - JAIL DIV",4279,21,2020-05-23,5
283,5941533,"BOOKING","05/28/2020 12:00:00 AM","0730","16","Foothill","1613",14,"F","H","08","Other Assaults","M","243(B)PC","BATTERY ON PO/EMERGENCY PERSONNEL W/O INJ","OTHER DISPOSITION","12600    PIERCE                       ST",NA,34.2758,-118.4052,"POINT (-118.4052 34.2758)","05/28/2020 12:00:00 AM","1155","VALLEY - JAIL DIV",4279,22,2020-05-28,5
285,5945487,"BOOKING","05/31/2020 12:00:00 AM","1630","08","West LA","0831",51,"M","B","05","Burglary","F","463(A)PC","2ND DEGREE BURGLARY DURING EARTHQUAKE/ETC","FELONY COMPLAINT FILED","WILSHIRE","CENTINELA",34.0416,-118.4706,"POINT (-118.4706 34.0416)","05/31/2020 12:00:00 AM","2057","VALLEY - JAIL DIV",4279,22,2020-05-31,5
286,5938697,"BOOKING","05/24/2020 12:00:00 AM","0230","04","Hollenbeck","0478",21,"M","H","01","Homicide","F","187(A)PC","MURDER:FIRST DEGREE:SHOOT FROM VEHICLE","FELONY COMPLAINT FILED","WHITTIER                     BL","LORENA                       ST",34.0278,-118.201,"POINT (-118.201 34.0278)","05/24/2020 12:00:00 AM","0909","METRO - JAIL DIVISION",4273,21,2020-05-24,5
288,5950062,"BOOKING","06/06/2020 12:00:00 AM","1830","12","77th Street","1215",68,"M","B","04","Aggravated Assault","F","245(A)(1)PC","ADW, NOT FIREARM, W/GBI","DISTRICT ATTORNEY REJECT","1300 W  56TH                         ST",NA,33.9916,-118.2981,"POINT (-118.2981 33.9916)","06/06/2020 12:00:00 AM","2023","77TH ST",4212,23,2020-06-06,6
289,5942598,"BOOKING","05/29/2020 12:00:00 AM","0030","06","Hollywood","0678",50,"M","H","04","Aggravated Assault","F","273.5(A)PC","CORPORAL INJURY ON SPOUSE/COHABITANT/ETC","OTHER (REQUIRES ADDITION ACTION)","5000    LEMON GROVE",NA,34.0862,-118.3064,"POINT (-118.3064 34.0862)","05/29/2020 12:00:00 AM","0244","HOLLYWOOD",4206,22,2020-05-29,5
290,5938943,"BOOKING","05/24/2020 12:00:00 AM","1805","01","Central","0158",40,"F","B","16","Narcotic Drug Laws","F","11351.5HS","POSS/PURCHASE COCAINE BASE FOR SALE","FELONY COMPLAINT FILED","6TH","GLADYS",34.0403,-118.2421,"POINT (-118.2421 34.0403)","05/24/2020 12:00:00 AM","2040","METRO - JAIL DIVISION",4273,21,2020-05-24,5
291,5945278,"BOOKING","05/31/2020 12:00:00 AM","0347","05","Harbor","0529",22,"M","H","06","Larceny","F","487(A)PC","GRAND THEFT MONEY/PROPERTY > $400","FELONY COMPLAINT FILED","ANCHORAGE","HENRY FORD",33.7674,-118.2406,"POINT (-118.2406 33.7674)","05/31/2020 12:00:00 AM","0837","HARBOR",4205,22,2020-05-31,5
292,5949108,"BOOKING","06/05/2020 12:00:00 AM","0500","02","Rampart","0245",24,"M","B","24","Miscellaneous Other Violations","F","594(B)(1)PC","VANDALISM W/LOSS VALUED EQ OR > $400","849(B)(1) PC/TECHNICAL ARREST","400 S  GRAND VIEW                   ST",NA,34.063,-118.2754,"POINT (-118.2754 34.063)","06/05/2020 12:00:00 AM","0735","METRO - JAIL DIVISION",4273,23,2020-06-05,6
293,5938481,"BOOKING","05/23/2020 12:00:00 AM","2100","15","N Hollywood","1515",19,"M","H","08","Other Assaults","F","69PC","OBSTRUCT/RESIST EXECUTIVE OFFICER","MISDEMEANOR COMPLAINT FILED","6900    HINDS                        AV",NA,34.1959,-118.3911,"POINT (-118.3911 34.1959)","05/24/2020 12:00:00 AM","0005","VALLEY - JAIL DIV",4279,21,2020-05-23,5
295,5945253,"BOOKING","05/30/2020 12:00:00 AM","2210","07","Wilshire","0701",35,"M","B","05","Burglary","F","463(A)PC","2ND DEGREE BURGLARY DURING EARTHQUAKE/ETC","849(B)(1) PC/TECHNICAL ARREST","8300    MELROSE                      AV",NA,34.0837,-118.3707,"POINT (-118.3707 34.0837)","05/31/2020 12:00:00 AM","0741","77TH ST",4212,22,2020-05-30,5
298,201709520,"RFC","05/26/2020 12:00:00 AM","1530","17","Devonshire","1768",24,"M","H","16","Narcotic Drug Laws","M","11377HS","POSSESSION CONTROLLED SUBSTANCE","MISDEMEANOR COMPLAINT FILED","17100    LABRADOR                     ST",NA,34.2498,-118.5068,"POINT (-118.5068 34.2498)",NA,NA,NA,NA,22,2020-05-26,5
300,5938540,"BOOKING","05/23/2020 12:00:00 AM","2200","08","West LA","0805",29,"M","B","07","Vehicle Theft","F","487(D)PCGTA","GRAND THEFT AUTO","FELONY COMPLAINT FILED","SAN DIEGO                    FY","GETTY CENTER                 DR",34.1016,-118.4698,"POINT (-118.4698 34.1016)","05/24/2020 12:00:00 AM","0118","VALLEY - JAIL DIV",4279,21,2020-05-23,5
301,5947880,"BOOKING","06/03/2020 12:00:00 AM","1015","18","Southeast","1802",25,"M","H","11","Receive Stolen Property","F","496(A)PC","RECEIVING KNOWN STOLEN PROPERTY >$950","849(B)(1) PC/TECHNICAL ARREST","8800 S  BROADWAY",NA,33.9574,-118.2782,"POINT (-118.2782 33.9574)","06/03/2020 12:00:00 AM","1849","77TH ST",4212,23,2020-06-03,6
303,5947143,"BOOKING","06/02/2020 12:00:00 AM","1125","18","Southeast","1824",37,"M","H","08","Other Assaults","F","422(A)PC","TERRORIZE CAUSING FEAR","DISTRICT ATTORNEY REJECT","800 E  97TH                         ST",NA,33.9484,-118.2608,"POINT (-118.2608 33.9484)","06/02/2020 12:00:00 AM","1746","77TH ST",4212,23,2020-06-02,6
306,5946042,"BOOKING","06/01/2020 12:00:00 AM","1145","12","77th Street","1245",59,"M","B","04","Aggravated Assault","F","245(A)(2)PC","ADW W/FIREARM","DISTRICT ATTORNEY REJECT","6400 S  DENKER                       AV",NA,33.9806,-118.3046,"POINT (-118.3046 33.9806)","06/01/2020 12:00:00 AM","1518","77TH ST",4212,23,2020-06-01,6
307,5945690,"BOOKING","05/31/2020 12:00:00 AM","2200","02","Rampart","0219",24,"M","B","05","Burglary","F","463(A)PC","2ND DEGREE BURGLARY DURING EARTHQUAKE/ETC","CITY ATTORNEY REJECT","1100 W  SUNSET                       BL",NA,34.0657,-118.2494,"POINT (-118.2494 34.0657)","06/01/2020 12:00:00 AM","0044","METRO - JAIL DIVISION",4273,22,2020-05-31,5
308,5944849,"BOOKING","05/30/2020 12:00:00 AM","2200","06","Hollywood","0644",22,"M","B","05","Burglary","F","459PC","BURGLARY","FELONY COMPLAINT FILED","7200 W  SUNSET                       BL",NA,34.098,-118.3471,"POINT (-118.3471 34.098)","05/30/2020 12:00:00 AM","2320","HOLLYWOOD",4206,22,2020-05-30,5
311,5768758,"BOOKING","05/24/2020 12:00:00 AM","0205","02","Rampart","0249",23,"F","B","12","Weapon (carry/poss)","F","25850(C)2PC","CARRY STOLEN LOADED FIREARM","DISTRICT ATTORNEY REJECT","1000    WILSHIRE                     BL",NA,34.0519,-118.2624,"POINT (-118.2624 34.0519)","05/24/2020 12:00:00 AM","0550","METRO - JAIL DIVISION",4273,21,2020-05-24,5
313,5945996,"BOOKING","06/01/2020 12:00:00 AM","0830","15","N Hollywood","1504",29,"M","B","06","Larceny","F","459PCAUTO","BURGLARY FROM VEHICLE","MISDEMEANOR COMPLAINT FILED","7300 N  LANKERSHIM                   BL",NA,34.2045,-118.392,"POINT (-118.392 34.2045)","06/01/2020 12:00:00 AM","1221","VALLEY - JAIL DIV",4279,23,2020-06-01,6
314,5948817,"BOOKING","06/04/2020 12:00:00 AM","1900","10","West Valley","1063",34,"M","H","07","Vehicle Theft","F","487(D)(1)PC","GRAND THEFT AUTO/HORSE/ETC","FELONY COMPLAINT FILED","18400    BURBANK                      BL",NA,34.1718,-118.5338,"POINT (-118.5338 34.1718)","06/04/2020 12:00:00 AM","2157","VALLEY - JAIL DIV",4279,23,2020-06-04,6
315,5939423,"BOOKING","05/25/2020 12:00:00 AM","1330","11","Northeast","1138",40,"M","W","14","Sex (except rape/prst)","F","261.5(D)PC","SEX WITH MINOR UNDER 16 BY PERSON 21+","FELONY COMPLAINT FILED","300    STOWE                        TR",NA,34.1145,-118.1891,"POINT (-118.1891 34.1145)","05/25/2020 12:00:00 AM","1648","METRO - JAIL DIVISION",4273,22,2020-05-25,5
316,200611937,"RFC","06/01/2020 12:00:00 AM","2230","06","Hollywood","0666",30,"M","W","24","Miscellaneous Other Violations","M","8.78LAAC","VIOL OF CURFEW DURING STATE OF EMER","MISDEMEANOR COMPLAINT FILED","LELAND","VINE                         ST",34.097,-118.3266,"POINT (-118.3266 34.097)",NA,NA,NA,NA,23,2020-06-01,6
317,5949004,"BOOKING","06/05/2020 12:00:00 AM","0025","05","Harbor","0564",26,"M","H","12","Weapon (carry/poss)","F","29800(A)1PC","POSS F/ARM BY CONVICTED FELON/ADDICT/ETC","DISTRICT ATTORNEY REJECT","200 W  1ST                          ST",NA,33.7433,-118.2821,"POINT (-118.2821 33.7433)","06/05/2020 12:00:00 AM","0301","HARBOR",4205,23,2020-06-05,6
318,5938444,"BOOKING","05/23/2020 12:00:00 AM","1830","03","Southwest","0314",22,"M","B","16","Narcotic Drug Laws","F","11359HS","POSSESSION MARIJUANA FOR SALE","849(B)(1) PC/TECHNICAL ARREST","ADAMS                        BL","ARLINGTON                    AV",34.0326,-118.3177,"POINT (-118.3177 34.0326)","05/23/2020 12:00:00 AM","2241","77TH ST",4212,21,2020-05-23,5
320,5768788,"BOOKING","05/31/2020 12:00:00 AM","0250","03","Southwest","0332",24,"M","B","08","Other Assaults","M","243(E)(1)PC","BATT EX-SPOUSE/FIANCEE/PERSN W/DATING REL","MISDEMEANOR COMPLAINT FILED","2600    WEST                         BL",NA,34.032,-118.3417,"POINT (-118.3417 34.032)","05/31/2020 12:00:00 AM","0527","77TH ST",4212,22,2020-05-31,5
324,5946958,"BOOKING","06/02/2020 12:00:00 AM","0450","13","Newton","1327",29,"M","B","05","Burglary","F","459PCCOM","COMMERCIAL BURGLARY","DISTRICT ATTORNEY REJECT","25TH                         ST","COMPTON                      AV",34.0159,-118.2467,"POINT (-118.2467 34.0159)","06/02/2020 12:00:00 AM","0812","77TH ST",4212,23,2020-06-02,6
325,5938646,"BOOKING","05/24/2020 12:00:00 AM","0330","04","Hollenbeck","0464",33,"M","H","12","Weapon (carry/poss)","F","26100(B)PC","PERMIT ANOTHER DISCHARGE F/ARM FROM A VEH","DISTRICT ATTORNEY REJECT","2100 E  1ST                          ST",NA,34.0447,-118.2133,"POINT (-118.2133 34.0447)","05/24/2020 12:00:00 AM","0714","METRO - JAIL DIVISION",4273,21,2020-05-24,5
326,5942699,"BOOKING","05/29/2020 12:00:00 AM","0710","11","Northeast","1115",38,"M","W","04","Aggravated Assault","F","273.5(A)PC","CORPORAL INJURY ON SPOUSE/COHABITANT/ETC","MISDEMEANOR COMPLAINT FILED","2300    COLORADO                     BL",NA,34.1395,-118.2163,"POINT (-118.2163 34.1395)","05/29/2020 12:00:00 AM","0909","METRO - JAIL DIVISION",4273,22,2020-05-29,5
328,5946418,"BOOKING","06/01/2020 12:00:00 AM","2005","06","Hollywood","0645",33,"F","B","05","Burglary","F","463(A)PC","2ND DEGREE BURGLARY DURING EARTHQUAKE/ETC","DISTRICT ATTORNEY REJECT","CITRUS","DELONGPRE",34.1006,-118.3417,"POINT (-118.3417 34.1006)","06/01/2020 12:00:00 AM","2317","HOLLYWOOD",4206,23,2020-06-01,6
329,5949506,"BOOKING","06/05/2020 12:00:00 AM","2320","18","Southeast","1844",30,"M","H","04","Aggravated Assault","F","245(A)(1)PC","ADW, NOT FIREARM, W/GBI","FELONY COMPLAINT FILED","600 E  110TH                        ST",NA,33.9356,-118.2652,"POINT (-118.2652 33.9356)","06/06/2020 12:00:00 AM","0130","77TH ST",4212,23,2020-06-05,6
331,5948659,"BOOKING","06/04/2020 12:00:00 AM","1305","02","Rampart","0245",64,"M","H","12","Weapon (carry/poss)","F","22810(G)1PC","ILLEGAL USE OF TEAR GAS/TEAR GAS WEAPON","OTHER (REQUIRES ADDITION ACTION)","2500    OCEAN VIEW                   AV",NA,34.0625,-118.28,"POINT (-118.28 34.0625)","06/04/2020 12:00:00 AM","1617","METRO - JAIL DIVISION",4273,23,2020-06-04,6
332,5950395,"BOOKING","06/06/2020 12:00:00 AM","2150","01","Central","0161",21,"M","H","08","Other Assaults","F","69PC","OBSTRUCT/RESIST EXECUTIVE OFFICER","OTHER (REQUIRES ADDITION ACTION)","7TH                          ST","FIGUEROA                     ST",34.0496,-118.2603,"POINT (-118.2603 34.0496)","06/07/2020 12:00:00 AM","0928","METRO - JAIL DIVISION",4273,23,2020-06-06,6
334,5949233,"BOOKING","06/05/2020 12:00:00 AM","1450","18","Southeast","1821",30,"M","H","07","Vehicle Theft","F","A487(D)1PC","ATTEMPT GRAND THEFT AUTO","849(B)(1) PC/TECHNICAL ARREST","89TH","BROADWAY",33.9467,-118.2871,"POINT (-118.2871 33.9467)","06/05/2020 12:00:00 AM","1631","77TH ST",4212,23,2020-06-05,6
336,5946873,"BOOKING","06/01/2020 12:00:00 AM","1917","21","Topanga","2158",22,"M","B","05","Burglary","F","463(A)PC","2ND DEGREE BURGLARY DURING EARTHQUAKE/ETC","DISTRICT ATTORNEY REJECT","6200    CANOGA                       AV",NA,34.1828,-118.5974,"POINT (-118.5974 34.1828)","06/02/2020 12:00:00 AM","0352","VALLEY - JAIL DIV",4279,23,2020-06-01,6
337,5945103,"BOOKING","05/31/2020 12:00:00 AM","0035","12","77th Street","1213",23,"M","H","04","Aggravated Assault","F","273.5(A)PC","CORPORAL INJURY ON SPOUSE/COHABITANT/ETC","MISDEMEANOR COMPLAINT FILED","1800 W  57TH                         ST",NA,33.991,-118.3096,"POINT (-118.3096 33.991)","05/31/2020 12:00:00 AM","0214","77TH ST",4212,22,2020-05-31,5
338,5945318,"BOOKING","05/31/2020 12:00:00 AM","0130","07","Wilshire","0702",20,"M","B","05","Burglary","F","463(A)PC","2ND DEGREE BURGLARY DURING EARTHQUAKE/ETC","849(B)(1) PC/TECHNICAL ARREST","7300    MELROSE                      AV",NA,34.0836,-118.3487,"POINT (-118.3487 34.0836)","05/31/2020 12:00:00 AM","1123","METRO - JAIL DIVISION",4273,22,2020-05-31,5
339,5939347,"BOOKING","05/25/2020 12:00:00 AM","0710","17","Devonshire","1715",54,"F","W","16","Narcotic Drug Laws","M","11366HS","MAINTAIN PLACE TO SELL CONTROLLED SUBS","MISDEMEANOR COMPLAINT FILED","12100    NUGENT                       DR",NA,34.2913,-118.5155,"POINT (-118.5155 34.2913)","05/25/2020 12:00:00 AM","1335","VALLEY - JAIL DIV",4279,22,2020-05-25,5
340,5938446,"BOOKING","05/23/2020 12:00:00 AM","2030","06","Hollywood","0663",31,"M","B","10","Fraud/Embezzlement","F","530.5(C)3PC","POSS ID OF 10 OR MORE PRSN W/INTENT DEFRAU","FELONY COMPLAINT FILED","LA BREA                      AV","SANTA MONICA                 BL",34.0907,-118.3384,"POINT (-118.3384 34.0907)","05/23/2020 12:00:00 AM","2253","HOLLYWOOD",4206,21,2020-05-23,5
341,5949201,"BOOKING","06/05/2020 12:00:00 AM","1135","18","Southeast","1801",34,"M","B","04","Aggravated Assault","F","245(A)(1)PC","ADW, NOT FIREARM, W/GBI","OTHER (REQUIRES ADDITION ACTION)","92ND                         ST","VERMONT                      AV",33.9528,-118.2916,"POINT (-118.2916 33.9528)","06/05/2020 12:00:00 AM","1413","77TH ST",4212,23,2020-06-05,6
342,5940161,"BOOKING","05/26/2020 12:00:00 AM","1520","09","Van Nuys","0906",28,"M","H","24","Miscellaneous Other Violations","F","594(B)(1)PC","VANDALISM W/LOSS VALUED EQ OR > $400","OTHER (REQUIRES ADDITION ACTION)","7300    LENNOX                       AV",NA,34.203,-118.4458,"POINT (-118.4458 34.203)","05/26/2020 12:00:00 AM","1809","VALLEY - JAIL DIV",4279,22,2020-05-26,5
343,5945285,"BOOKING","05/31/2020 12:00:00 AM","0650","11","Northeast","1124",31,"M","H","24","Miscellaneous Other Violations","F","594(B)(1)PC","VANDALISM W/LOSS VALUED EQ OR > $400","MISDEMEANOR COMPLAINT FILED","3000 N  SAN FERNANDO                 RD",NA,34.1135,-118.2445,"POINT (-118.2445 34.1135)","05/31/2020 12:00:00 AM","0914","METRO - JAIL DIVISION",4273,22,2020-05-31,5
345,5768761,"BOOKING","05/31/2020 12:00:00 AM","0100","01","Central","0128",20,"M","H","05","Burglary","F","463(A)PC","2ND DEGREE BURGLARY DURING EARTHQUAKE/ETC","MISDEMEANOR COMPLAINT FILED","300    LOS ANGELES",NA,34.0513,-118.2426,"POINT (-118.2426 34.0513)","05/31/2020 12:00:00 AM","0315","METRO - JAIL DIVISION",4273,22,2020-05-31,5
346,5940458,"BOOKING","05/26/2020 12:00:00 AM","2345","18","Southeast","1863",31,"M","B","12","Weapon (carry/poss)","F","25400(A)1PC","CARRY CONCEALED WEAPON IN VEHICLE","FELONY COMPLAINT FILED","400 E  118TH                        PL",NA,33.9256,-118.2674,"POINT (-118.2674 33.9256)","05/27/2020 12:00:00 AM","0341","77TH ST",4212,22,2020-05-26,5
347,5768757,"BOOKING","05/24/2020 12:00:00 AM","0205","02","Rampart","0249",24,"M","B","12","Weapon (carry/poss)","F","29800(A)1PC","POSS F/ARM BY CONVICTED FELON/ADDICT/ETC","FELONY COMPLAINT FILED","1000    WILSHIRE                     BL",NA,34.0519,-118.2624,"POINT (-118.2624 34.0519)","05/24/2020 12:00:00 AM","0556","METRO - JAIL DIVISION",4273,21,2020-05-24,5
348,5949211,"BOOKING","06/05/2020 12:00:00 AM","1200","20","Olympic","2031",28,"M","B","04","Aggravated Assault","F","243(D)PC","BATTERY W/GBI","FELONY COMPLAINT FILED","WILSHIRE                     AV","MANHATTAN                    PL",34.0617,-118.3104,"POINT (-118.3104 34.0617)","06/05/2020 12:00:00 AM","1445","77TH ST",4212,23,2020-06-05,6
349,5945110,"BOOKING","05/30/2020 12:00:00 AM","2230","11","Northeast","1151",32,"M","B","05","Burglary","M","459PC","BURGLARY","FELONY COMPLAINT FILED","SANTA MONICA                 BL","KINGSLEY                     DR",34.0986,-118.2962,"POINT (-118.2962 34.0986)","05/31/2020 12:00:00 AM","0232","77TH ST",4212,22,2020-05-30,5
350,5938851,"BOOKING","05/24/2020 12:00:00 AM","1510","04","Hollenbeck","0499",43,"M","H","04","Aggravated Assault","F","245(A)(1)PC","ADW, NOT FIREARM, W/GBI","FELONY COMPLAINT FILED","3600    NOAKES                       ST",NA,34.0145,-118.2002,"POINT (-118.2002 34.0145)","05/24/2020 12:00:00 AM","1657","METRO - JAIL DIVISION",4273,21,2020-05-24,5
351,5947875,"BOOKING","06/03/2020 12:00:00 AM","0020","18","Southeast","1802",19,"M","B","12","Weapon (carry/poss)","F","25850(A)PC","CARRY LOADED F/ARM PRSON/HEH PUBLIC PLACE","FELONY COMPLAINT FILED","86TH                         PL","BROADWAY",33.9594,-118.2739,"POINT (-118.2739 33.9594)","06/03/2020 12:00:00 AM","1557","77TH ST",4212,23,2020-06-03,6
352,5939368,"BOOKING","05/25/2020 12:00:00 AM","1340","08","West LA","0885",38,"M","B","04","Aggravated Assault","F","273.5(A)PC","CORPORAL INJURY ON SPOUSE/COHABITANT/ETC","CITY ATTORNEY REJECT","10500    CUSHDON                      AV",NA,34.0425,-118.4181,"POINT (-118.4181 34.0425)","05/25/2020 12:00:00 AM","1500","PACIFIC",4214,22,2020-05-25,5
353,5946176,"BOOKING","06/01/2020 12:00:00 AM","1820","09","Van Nuys","0929",25,"M","H","12","Weapon (carry/poss)","F","22210PC","MFG/SELL/GIVE/LEND POSSES LEADED CANE/ETC","MISDEMEANOR COMPLAINT FILED","HAMLIN","VAN NUYS",34.1887,-118.4247,"POINT (-118.4247 34.1887)","06/01/2020 12:00:00 AM","2031","VALLEY - JAIL DIV",4279,23,2020-06-01,6
355,5944434,"BOOKING","05/30/2020 12:00:00 AM","0400","01","Central","0163",30,"F","W","12","Weapon (carry/poss)","F","25850(A)PC","CARRY LOADED F/ARM PRSON/HEH PUBLIC PLACE","MISDEMEANOR COMPLAINT FILED","700 S  BROADWAY",NA,34.0444,-118.2541,"POINT (-118.2541 34.0444)","05/30/2020 12:00:00 AM","0608","77TH ST",4212,22,2020-05-30,5
356,5946453,"BOOKING","06/01/2020 12:00:00 AM","2005","06","Hollywood","0645",33,"F","B","05","Burglary","F","463(A)PC","2ND DEGREE BURGLARY DURING EARTHQUAKE/ETC","DISTRICT ATTORNEY REJECT","CITRUS","DELONGPRE",34.1006,-118.3417,"POINT (-118.3417 34.1006)","06/01/2020 12:00:00 AM","2346","HOLLYWOOD",4206,23,2020-06-01,6
357,5768765,"BOOKING","05/31/2020 12:00:00 AM","0020","01","Central","0154",21,"M","H","12","Weapon (carry/poss)","F","21310PC","CARRY CONCEALED ON PERSON DIRK OR DAGGER","CITY ATTORNEY REJECT","SPRING                       ST","5TH                          ST",34.0474,-118.2496,"POINT (-118.2496 34.0474)","05/31/2020 12:00:00 AM","0402","77TH ST",4212,22,2020-05-31,5
358,5945685,"BOOKING","05/31/2020 12:00:00 AM","2300","06","Hollywood","0636",26,"F","B","08","Other Assaults","F","422(A)PC","TERRORIZE CAUSING FEAR","OTHER (REQUIRES ADDITION ACTION)","1800 N  IVAR                         AV",NA,34.1039,-118.3282,"POINT (-118.3282 34.1039)","06/01/2020 12:00:00 AM","0040","HOLLYWOOD",4206,22,2020-05-31,5
359,5940070,"BOOKING","05/26/2020 12:00:00 AM","1230","09","Van Nuys","0941",30,"M","H","10","Fraud/Embezzlement","F","530.5(A)PC","GET CREDIT/ETC OTHER'S ID","MISDEMEANOR COMPLAINT FILED","5700    SEPULVEDA                    BL",NA,34.174,-118.4661,"POINT (-118.4661 34.174)","05/26/2020 12:00:00 AM","1532","VALLEY - JAIL DIV",4279,22,2020-05-26,5
361,5949094,"BOOKING","06/05/2020 12:00:00 AM","0530","18","Southeast","1824",22,"M","H","24","Miscellaneous Other Violations","F","451(C)PC","ARSON OF STRUCTURE OR FOREST LAND","849(B)(1) PC/TECHNICAL ARREST","89TH                         ST","CENTRAL                      AV",33.947,-118.2594,"POINT (-118.2594 33.947)","06/05/2020 12:00:00 AM","0649","77TH ST",4212,23,2020-06-05,6
362,5939635,"BOOKING","05/25/2020 12:00:00 AM","2140","09","Van Nuys","0989",60,"F","H","06","Larceny","F","487(C)PC","GRAND THEFT PERSON","CITY ATTORNEY REJECT","4300    VENTURA CANYON               AV",NA,34.1478,-118.4296,"POINT (-118.4296 34.1478)","05/25/2020 12:00:00 AM","2322","VALLEY - JAIL DIV",4279,22,2020-05-25,5
363,5938604,"BOOKING","05/24/2020 12:00:00 AM","0100","15","N Hollywood","1525",31,"F","B","04","Aggravated Assault","F","273.5(A)PC","CORPORAL INJURY ON SPOUSE/COHABITANT/ETC","CITY ATTORNEY REJECT","5600    COLFAX                       AV",NA,34.1826,-118.3916,"POINT (-118.3916 34.1826)","05/24/2020 12:00:00 AM","0305","VALLEY - JAIL DIV",4279,21,2020-05-24,5
365,5768747,"BOOKING","05/23/2020 12:00:00 AM","2350","01","Central","0133",21,"M","W","23","Moving Traffic Violations","F","2800.2(A)VC","EVADE PO:DISREGARD SAFETY","FELONY COMPLAINT FILED","S  BROADWAY","W  3RD",34.0513,-118.2478,"POINT (-118.2478 34.0513)","05/24/2020 12:00:00 AM","0436","METRO - JAIL DIVISION",4273,21,2020-05-23,5
366,5948887,"BOOKING","06/04/2020 12:00:00 AM","2015","08","West LA","0805",39,"M","W","07","Vehicle Theft","F","10851(A)VC","TAKE VEHICLE W/O OWNER'S CONSENT","849(B)(1) PC/TECHNICAL ARREST","1200    LINDA FLORA                  DR",NA,34.0919,-118.4652,"POINT (-118.4652 34.0919)","06/04/2020 12:00:00 AM","2346","VALLEY - JAIL DIV",4279,23,2020-06-04,6
367,5940448,"BOOKING","05/27/2020 12:00:00 AM","0015","07","Wilshire","0726",36,"F","H","07","Vehicle Theft","F","10851(A)VC","TAKE VEHICLE W/O OWNER'S CONSENT","849(B)(1) PC/TECHNICAL ARREST","LA BREA","3RD                          ST",34.0689,-118.344,"POINT (-118.344 34.0689)","05/27/2020 12:00:00 AM","0313","METRO - JAIL DIVISION",4273,22,2020-05-27,5
368,5938784,"BOOKING","05/24/2020 12:00:00 AM","0930","12","77th Street","1256",37,"F","H","11","Receive Stolen Property","F","496(A)PC","RECEIVING KNOWN STOLEN PROPERTY >$950","849(B)(1) PC/TECHNICAL ARREST","300 W  73RD                         ST",NA,33.9737,-118.2783,"POINT (-118.2783 33.9737)","05/24/2020 12:00:00 AM","1357","77TH ST",4212,21,2020-05-24,5
370,5768770,"BOOKING","05/31/2020 12:00:00 AM","0200","06","Hollywood","0646",18,"M","H","05","Burglary","F","459PC","BURGLARY","MISDEMEANOR COMPLAINT FILED","6500    HOLLYWOOD                    BL",NA,34.1016,-118.3317,"POINT (-118.3317 34.1016)","05/31/2020 12:00:00 AM","0443","HOLLYWOOD",4206,22,2020-05-31,5
372,5947057,"BOOKING","06/02/2020 12:00:00 AM","1000","12","77th Street","1251",37,"M","H","05","Burglary","F","A459PC","ATTEMPT - BURGLARY","DISTRICT ATTORNEY REJECT","6700    11TH                         AV",NA,33.9757,-118.3294,"POINT (-118.3294 33.9757)","06/02/2020 12:00:00 AM","1320","77TH ST",4212,23,2020-06-02,6
373,5949324,"BOOKING","06/05/2020 12:00:00 AM","1920","03","Southwest","0397",28,"M","H","07","Vehicle Theft","F","10851(A)VC","TAKE VEHICLE W/O OWNER'S CONSENT","849(B)(1) PC/TECHNICAL ARREST","VERMONT                      AV","MARTIN LUTHER KI             BL",34.0073,-118.298,"POINT (-118.298 34.0073)","06/05/2020 12:00:00 AM","2052","77TH ST",4212,23,2020-06-05,6
374,5947115,"BOOKING","06/02/2020 12:00:00 AM","1400","03","Southwest","0391",23,"F","B","04","Aggravated Assault","F","273.5(A)PC","CORPORAL INJURY ON SPOUSE/COHABITANT/ETC","849(B)(1) PC/TECHNICAL ARREST","4200    DON CARLOS                   DR",NA,34.0076,-118.3553,"POINT (-118.3553 34.0076)","06/02/2020 12:00:00 AM","1625","77TH ST",4212,23,2020-06-02,6
375,5940055,"BOOKING","05/26/2020 12:00:00 AM","1230","09","Van Nuys","0941",24,"F","H","09","Forgery/Counterfeit","F","484E(D)PC","ACQUIRE ACCESS CARD IN 4+ NAMES > 12 MOS","MISDEMEANOR COMPLAINT FILED","5700    SEPULVEDA                    BL",NA,34.174,-118.4661,"POINT (-118.4661 34.174)","05/26/2020 12:00:00 AM","1509","VALLEY - JAIL DIV",4279,22,2020-05-26,5
376,5947106,"BOOKING","06/02/2020 12:00:00 AM","1330","16","Foothill","1633",40,"M","H","07","Vehicle Theft","F","487(D)(1)PC","GRAND THEFT AUTO/HORSE/ETC","849(B)(1) PC/TECHNICAL ARREST","10800    GLENOAKS                     BL",NA,34.2657,-118.403,"POINT (-118.403 34.2657)","06/02/2020 12:00:00 AM","1539","VALLEY - JAIL DIV",4279,23,2020-06-02,6
377,5945526,"BOOKING","05/31/2020 12:00:00 AM","1910","05","Harbor","0529",20,"M","H","04","Aggravated Assault","F","23110(B)VC","THROW SUBSTANCE AT VEHICLE W/GBI INTENT","FELONY COMPLAINT FILED","ANAHEIM","FOOTE",33.782,-118.2294,"POINT (-118.2294 33.782)","05/31/2020 12:00:00 AM","2150","HARBOR",4205,22,2020-05-31,5
378,5948826,"BOOKING","06/04/2020 12:00:00 AM","1945","13","Newton","1351",28,"F","B","07","Vehicle Theft","F","10851(A)VC","TAKE VEHICLE W/O OWNER'S CONSENT","FELONY COMPLAINT FILED","43RD                         ST","BROADWAY                     AV",34.0056,-118.2784,"POINT (-118.2784 34.0056)","06/04/2020 12:00:00 AM","2210","77TH ST",4212,23,2020-06-04,6
379,5945704,"BOOKING","05/31/2020 12:00:00 AM","2245","18","Southeast","1842",31,"M","B","05","Burglary","F","463(A)PC","2ND DEGREE BURGLARY DURING EARTHQUAKE/ETC","FELONY COMPLAINT FILED","200 E  112TH                        ST",NA,33.933,-118.2716,"POINT (-118.2716 33.933)","06/01/2020 12:00:00 AM","0101","77TH ST",4212,22,2020-05-31,5
381,5949553,"BOOKING","06/06/2020 12:00:00 AM","0015","04","Hollenbeck","0455",18,"M","H","12","Weapon (carry/poss)","F","25400(A)2PC","CARRYING CONCEALED WEAPON UPON PERSON","FELONY COMPLAINT FILED","500    SAN BENITO                   ST",NA,34.0506,-118.2135,"POINT (-118.2135 34.0506)","06/06/2020 12:00:00 AM","0251","METRO - JAIL DIVISION",4273,23,2020-06-06,6
382,5938250,"BOOKING","05/23/2020 12:00:00 AM","1440","19","Mission","1921",42,"F","H","04","Aggravated Assault","F","273.5(A)PC","CORPORAL INJURY ON SPOUSE/COHABITANT/ETC","OTHER (REQUIRES ADDITION ACTION)","12800    TELFAIR                      AV",NA,34.3029,-118.4709,"POINT (-118.4709 34.3029)","05/23/2020 12:00:00 AM","1739","VALLEY - JAIL DIV",4279,21,2020-05-23,5
384,5940134,"BOOKING","05/26/2020 12:00:00 AM","1532","14","Pacific","1412",43,"M","W","04","Aggravated Assault","F","245(A)(1)PC","ADW, NOT FIREARM, W/GBI","FELONY COMPLAINT FILED","MAIN                         ST","SUNSET                       BL",33.9945,-118.4763,"POINT (-118.4763 33.9945)","05/26/2020 12:00:00 AM","1725","PACIFIC",4214,22,2020-05-26,5
385,5942626,"BOOKING","05/29/2020 12:00:00 AM","0020","01","Central","0163",47,"F","W","06","Larceny","F","459PCAUTO","BURGLARY FROM VEHICLE","DISTRICT ATTORNEY REJECT","SPRING","4TH",34.0438,-118.2547,"POINT (-118.2547 34.0438)","05/29/2020 12:00:00 AM","0345","METRO - JAIL DIVISION",4273,22,2020-05-29,5
387,5949066,"BOOKING","06/04/2020 12:00:00 AM","2340","09","Van Nuys","0943",26,"M","B","04","Aggravated Assault","F","273.5(A)PC","CORPORAL INJURY ON SPOUSE/COHABITANT/ETC","CITY ATTORNEY REJECT","14200    OXNARD                       ST",NA,34.1794,-118.4422,"POINT (-118.4422 34.1794)","06/05/2020 12:00:00 AM","0451","VALLEY - JAIL DIV",4279,23,2020-06-04,6
388,5768769,"BOOKING","05/31/2020 12:00:00 AM","0200","06","Hollywood","0646",27,"M","B","05","Burglary","F","459PC","BURGLARY","FELONY COMPLAINT FILED","HOLLYWOOD                    BL","SCHRADER",34.1016,-118.3325,"POINT (-118.3325 34.1016)","05/31/2020 12:00:00 AM","0418","HOLLYWOOD",4206,22,2020-05-31,5
389,5941894,"BOOKING","05/28/2020 12:00:00 AM","1345","18","Southeast","1839",27,"M","H","04","Aggravated Assault","F","245(A)(1)PC","ADW, NOT FIREARM, W/GBI","DISTRICT ATTORNEY REJECT","10600    WEIGAND                      AV",NA,33.9398,-118.2297,"POINT (-118.2297 33.9398)","05/28/2020 12:00:00 AM","1639","77TH ST",4212,22,2020-05-28,5
390,5944465,"BOOKING","05/30/2020 12:00:00 AM","0710","03","Southwest","0319",27,"M","W","24","Miscellaneous Other Violations","M","273.6(B)PC","VIOL CRT ORD PREV DOMESTC VIOL RESULT INJ","MISDEMEANOR COMPLAINT FILED","1900    PARK GROVE",NA,34.0358,-118.2766,"POINT (-118.2766 34.0358)","05/30/2020 12:00:00 AM","0848","77TH ST",4212,22,2020-05-30,5
392,5948424,"BOOKING","06/03/2020 12:00:00 AM","2330","17","Devonshire","1795",40,"M","H","08","Other Assaults","F","422(A)PC","TERRORIZE CAUSING FEAR","MISDEMEANOR COMPLAINT FILED","17100    ROSCOE                       BL",NA,34.2214,-118.5055,"POINT (-118.5055 34.2214)","06/04/2020 12:00:00 AM","0238","VALLEY - JAIL DIV",4279,23,2020-06-03,6
393,5942417,"BOOKING","05/28/2020 12:00:00 AM","1345","18","Southeast","1839",26,"M","H","04","Aggravated Assault","F","245(A)(1)PC","ADW, NOT FIREARM, W/GBI","DISTRICT ATTORNEY REJECT","10600    WEIGAND                      AV",NA,33.9398,-118.2297,"POINT (-118.2297 33.9398)","05/28/2020 12:00:00 AM","2012","77TH ST",4212,22,2020-05-28,5
394,5946476,"BOOKING","06/01/2020 12:00:00 AM","2000","13","Newton","1353",25,"M","H","12","Weapon (carry/poss)","F","29800(A)1PC","POSS F/ARM BY CONVICTED FELON/ADDICT/ETC","FELONY COMPLAINT FILED","4400    AVALON                       BL",NA,34.0034,-118.2653,"POINT (-118.2653 34.0034)","06/02/2020 12:00:00 AM","0015","77TH ST",4212,23,2020-06-01,6
395,5948596,"BOOKING","06/04/2020 12:00:00 AM","1100","18","Southeast","1861",39,"M","B","24","Miscellaneous Other Violations","F","594(A)(3)PC","DESTROY PROPERTY","849(B)(1) PC/TECHNICAL ARREST","11800 S  FIGUEROA                     ST",NA,33.9274,-118.2871,"POINT (-118.2871 33.9274)","06/04/2020 12:00:00 AM","1240","77TH ST",4212,23,2020-06-04,6
396,5946820,"BOOKING","06/01/2020 12:00:00 AM","1917","21","Topanga","2158",20,"M","B","24","Miscellaneous Other Violations","F","182(A)(1)PC","CONSPIRACY TO COMMIT ANY CRIME","DISTRICT ATTORNEY REJECT","6200    CANOGA                       AV",NA,34.1828,-118.5974,"POINT (-118.5974 34.1828)","06/02/2020 12:00:00 AM","0255","VALLEY - JAIL DIV",4279,23,2020-06-01,6
397,5945324,"BOOKING","05/31/2020 12:00:00 AM","0130","07","Wilshire","0702",21,"M","B","05","Burglary","F","463(A)PC","2ND DEGREE BURGLARY DURING EARTHQUAKE/ETC","849(B)(1) PC/TECHNICAL ARREST","7300    MELROSE                      AV",NA,34.0836,-118.3487,"POINT (-118.3487 34.0836)","05/31/2020 12:00:00 AM","1132","METRO - JAIL DIVISION",4273,22,2020-05-31,5
398,5945387,"BOOKING","05/31/2020 12:00:00 AM","1210","01","Central","0163",56,"F","B","05","Burglary","F","463(A)PC","2ND DEGREE BURGLARY DURING EARTHQUAKE/ETC","FELONY COMPLAINT FILED","800 S  BROADWAY",NA,34.0434,-118.255,"POINT (-118.255 34.0434)","05/31/2020 12:00:00 AM","1545","METRO - JAIL DIVISION",4273,22,2020-05-31,5
400,5942955,"BOOKING","05/29/2020 12:00:00 AM","0950","18","Southeast","1842",39,"M","H","04","Aggravated Assault","F","273.5(A)PC","CORPORAL INJURY ON SPOUSE/COHABITANT/ETC","OTHER (REQUIRES ADDITION ACTION)","200 W  111TH                        ST",NA,33.9348,-118.2775,"POINT (-118.2775 33.9348)","05/29/2020 12:00:00 AM","1136","77TH ST",4212,22,2020-05-29,5
401,5946901,"BOOKING","06/01/2020 12:00:00 AM","1917","21","Topanga","2158",21,"M","B","24","Miscellaneous Other Violations","F","182(A)(1)PC","CONSPIRACY TO COMMIT ANY CRIME","DISTRICT ATTORNEY REJECT","6200    CANOGA                       AV",NA,34.1828,-118.5974,"POINT (-118.5974 34.1828)","06/02/2020 12:00:00 AM","0439","VALLEY - JAIL DIV",4279,23,2020-06-01,6
402,5945800,"BOOKING","06/01/2020 12:00:00 AM","0135","03","Southwest","0391",24,"M","B","12","Weapon (carry/poss)","M","246.3(A)PC","WILLFUL DISCHRG FIREARM IN GROSS NEG MANNR","MISDEMEANOR COMPLAINT FILED","4400    DON TOMASO                   DR",NA,34.0025,-118.354,"POINT (-118.354 34.0025)","06/01/2020 12:00:00 AM","0310","77TH ST",4212,23,2020-06-01,6
403,5949193,"BOOKING","06/05/2020 12:00:00 AM","1146","13","Newton","1393",35,"M","H","11","Receive Stolen Property","F","496(A)PC","RECEIVING KNOWN STOLEN PROPERTY >$950","DISTRICT ATTORNEY REJECT","GAGE","CENTRAL                      AV",33.9786,-118.2761,"POINT (-118.2761 33.9786)","06/05/2020 12:00:00 AM","1354","METRO - JAIL DIVISION",4273,23,2020-06-05,6
404,5942525,"BOOKING","05/28/2020 12:00:00 AM","1900","05","Harbor","0565",20,"F","W","05","Burglary","F","459PC","BURGLARY","FELONY COMPLAINT FILED","8TH                          ST","GRAND",33.737,-118.2902,"POINT (-118.2902 33.737)","05/28/2020 12:00:00 AM","2348","HARBOR",4205,22,2020-05-28,5
406,5768777,"BOOKING","05/31/2020 12:00:00 AM","0120","03","Southwest","0319",18,"M","B","05","Burglary","F","463(A)PC","2ND DEGREE BURGLARY DURING EARTHQUAKE/ETC","849(B)(1) PC/TECHNICAL ARREST","ADAMS                        ST","FIGUEROA                     BL",34.0276,-118.2749,"POINT (-118.2749 34.0276)","05/31/2020 12:00:00 AM","0428","77TH ST",4212,22,2020-05-31,5
407,5949160,"BOOKING","06/05/2020 12:00:00 AM","0930","06","Hollywood","0656",22,"M","H","05","Burglary","F","459PCRES","RESIDENTIAL BURGLARY","OTHER (REQUIRES ADDITION ACTION)","LILIAN WAY","WILLOUGHBY",34.0889,-118.3277,"POINT (-118.3277 34.0889)","06/05/2020 12:00:00 AM","1139","HOLLYWOOD",4206,23,2020-06-05,6
408,5948558,"BOOKING","06/04/2020 12:00:00 AM","0905","04","Hollenbeck","0461",27,"M","W","07","Vehicle Theft","F","10851(E)VC","TAKE VEH:NO CNSNT:SPEC PR","FELONY COMPLAINT FILED","1300 S  MYERS                        ST",NA,34.0467,-118.2284,"POINT (-118.2284 34.0467)","06/04/2020 12:00:00 AM","1036","METRO - JAIL DIVISION",4273,23,2020-06-04,6
409,5945560,"BOOKING","05/31/2020 12:00:00 AM","2020","05","Harbor","0529",47,"M","H","10","Fraud/Embezzlement","F","4463(A)1VC","ALTER REGISTRATION/LICENSE PLATES/ETC","849(B)(1) PC/TECHNICAL ARREST","I                            ST","SOUTHERLAND                  ST",33.7826,-118.238,"POINT (-118.238 33.7826)","05/31/2020 12:00:00 AM","2230","HARBOR",4205,22,2020-05-31,5
411,5941346,"BOOKING","05/28/2020 12:00:00 AM","0145","06","Hollywood","0657",25,"F","B","03","Robbery","F","211PC","ROBBERY","DISTRICT ATTORNEY REJECT","WESTERN","SANTA MONICA",34.0908,-118.3092,"POINT (-118.3092 34.0908)","05/28/2020 12:00:00 AM","0327","HOLLYWOOD",4206,22,2020-05-28,5
413,5949181,"BOOKING","06/05/2020 12:00:00 AM","1020","02","Rampart","0203",29,"M","H","04","Aggravated Assault","F","273.5(A)PC","CORPORAL INJURY ON SPOUSE/COHABITANT/ETC","OTHER (REQUIRES ADDITION ACTION)","4000 W  MELROSE                      AV",NA,34.0851,-118.2881,"POINT (-118.2881 34.0851)","06/05/2020 12:00:00 AM","1329","METRO - JAIL DIVISION",4273,23,2020-06-05,6
414,5945293,"BOOKING","05/30/2020 12:00:00 AM","2200","07","Wilshire","0701",35,"M","B","05","Burglary","F","463(A)PC","2ND DEGREE BURGLARY DURING EARTHQUAKE/ETC","849(B)(1) PC/TECHNICAL ARREST","8300    MELROSE",NA,34.0837,-118.3707,"POINT (-118.3707 34.0837)","05/31/2020 12:00:00 AM","0956","77TH ST",4212,22,2020-05-30,5
415,5939838,"BOOKING","05/26/2020 12:00:00 AM","0320","20","Olympic","2081",28,"M","H","04","Aggravated Assault","F","245(A)(1)PC","ADW, NOT FIREARM, W/GBI","849(B)(1) PC/TECHNICAL ARREST","18TH","WESTERN",34.0417,-118.309,"POINT (-118.309 34.0417)","05/26/2020 12:00:00 AM","0756","METRO - JAIL DIVISION",4273,22,2020-05-26,5
416,5943001,"BOOKING","05/29/2020 12:00:00 AM","1230","05","Harbor","0523",27,"M","H","06","Larceny","F","487(A)PC","GRAND THEFT MONEY/PROPERTY > $400","MISDEMEANOR COMPLAINT FILED","2100    JOHN S GIBSON",NA,33.7567,-118.2895,"POINT (-118.2895 33.7567)","05/29/2020 12:00:00 AM","1255","HARBOR",4205,22,2020-05-29,5
417,5939299,"BOOKING","05/25/2020 12:00:00 AM","0930","10","West Valley","1011",23,"M","H","04","Aggravated Assault","F","273.5(A)PC","CORPORAL INJURY ON SPOUSE/COHABITANT/ETC","MISDEMEANOR COMPLAINT FILED","18900    SHERMAN                      WY",NA,34.2012,-118.5469,"POINT (-118.5469 34.2012)","05/25/2020 12:00:00 AM","1146","VALLEY - JAIL DIV",4279,22,2020-05-25,5
418,5945271,"BOOKING","05/31/2020 12:00:00 AM","0500","01","Central","0152",24,"M","B","05","Burglary","F","463(A)PC","2ND DEGREE BURGLARY DURING EARTHQUAKE/ETC","MISDEMEANOR COMPLAINT FILED","600 S  HOPE                         ST",NA,34.0492,-118.2566,"POINT (-118.2566 34.0492)","05/31/2020 12:00:00 AM","0818","METRO - JAIL DIVISION",4273,22,2020-05-31,5
419,5768776,"BOOKING","05/31/2020 12:00:00 AM","0120","03","Southwest","0319",21,"M","B","05","Burglary","F","463(A)PC","2ND DEGREE BURGLARY DURING EARTHQUAKE/ETC","849(B)(1) PC/TECHNICAL ARREST","2500 S  FIGUEROA                     ST",NA,34.0289,-118.2756,"POINT (-118.2756 34.0289)","05/31/2020 12:00:00 AM","0424","77TH ST",4212,22,2020-05-31,5
420,5945658,"BOOKING","05/31/2020 12:00:00 AM","2300","06","Hollywood","0666",25,"M","H","24","Miscellaneous Other Violations","F","594(A)(3)PC","DESTROY PROPERTY","DISTRICT ATTORNEY REJECT","VINE                         ST","FOUNTAIN                     AV",34.0944,-118.3266,"POINT (-118.3266 34.0944)","06/01/2020 12:00:00 AM","0020","HOLLYWOOD",4206,22,2020-05-31,5
421,5949394,"BOOKING","06/05/2020 12:00:00 AM","2050","05","Harbor","0557",35,"F","H","07","Vehicle Theft","F","487(D)(1)PC","GRAND THEFT AUTO/HORSE/ETC","FELONY COMPLAINT FILED","GAFFEY                       ST","2ND                          ST",33.7424,-118.2923,"POINT (-118.2923 33.7424)","06/05/2020 12:00:00 AM","2235","HARBOR",4205,23,2020-06-05,6
422,5945586,"BOOKING","05/31/2020 12:00:00 AM","2040","04","Hollenbeck","0497",27,"M","B","05","Burglary","F","463(A)PC","2ND DEGREE BURGLARY DURING EARTHQUAKE/ETC","849(B)(1) PC/TECHNICAL ARREST","2700 E  OLYMPIC                      BL",NA,34.024,-118.2192,"POINT (-118.2192 34.024)","05/31/2020 12:00:00 AM","2304","77TH ST",4212,22,2020-05-31,5
424,5939743,"BOOKING","05/26/2020 12:00:00 AM","0045","03","Southwest","0373",18,"M","B","12","Weapon (carry/poss)","F","25400(A)1PC","CARRY CONCEALED WEAPON IN VEHICLE","FELONY COMPLAINT FILED","WESTSIDE                     AV","KING",34.0164,-118.3312,"POINT (-118.3312 34.0164)","05/26/2020 12:00:00 AM","0210","77TH ST",4212,22,2020-05-26,5
427,5947796,"BOOKING","06/03/2020 12:00:00 AM","0900","10","West Valley","1061",39,"M","W","06","Larceny","F","459PCAUTO","BURGLARY FROM VEHICLE","MISDEMEANOR COMPLAINT FILED","19600    DICKENS                      ST",NA,34.1715,-118.5607,"POINT (-118.5607 34.1715)","06/03/2020 12:00:00 AM","1313","VALLEY - JAIL DIV",4279,23,2020-06-03,6
428,5948707,"BOOKING","06/04/2020 12:00:00 AM","1600","03","Southwest","0318",22,"M","H","03","Robbery","F","211PC","ROBBERY","849(B)(1) PC/TECHNICAL ARREST","23RD                         ST","VERMONT                      AV",34.0352,-118.2915,"POINT (-118.2915 34.0352)","06/04/2020 12:00:00 AM","1857","77TH ST",4212,23,2020-06-04,6
